,ParkName,Rank,Value,PercentOfTotal,State,Region,NPS Fee Acres,NPS Less Than Fee Acres,Other Federal Fee Acres,Subtotal Federal Acres,Other Public Acres,Private Acres,Subtotal Non-Federal Acres,Gross Area Acres,Unnamed: 0,latitude,longitude
0,GOLDEN GATE NRA,1,"15,223,697",4.78%,CA,PWR,34742.93,22246.33,324.97,57314.23,22285.73,2516.07,24801.8,82116.03,138,37.8480359,-122.5295263
1,BLUE RIDGE PKWY,2,"14,690,418",4.62%,NC-VA,SER,85735.2,2775.57,125.0,88635.77,259.58,10015.17,10274.75,98910.52,5,37.1199734,-80.12914119999998
2,GATEWAY NRA,4,"9,243,305",2.90%,NJ-NY,NER,20164.67,1.63,279.24,20445.54,5558.9,602.19,6161.09,26606.63,143,40.439669,-73.9887047
3,LINCOLN MEMORIAL,5,"7,804,683",2.45%,DC,NCR,7.29,0.0,0.0,7.29,0.0,0.0,0.0,7.29,46,38.8892686,-77.05017600000001
4,LAKE MEAD NRA,6,"7,578,958",2.38%,AZ-NV,PWR,1392731.19,41.31,78230.76,1471003.26,2444.75,22367.52,24812.27,1495815.53,63,36.155086299999994,-114.4559303
5,GRAND CANYON NP,8,"6,380,495",2.01%,AZ,IMR,1180650.85,0.0,0.0,1180650.85,11860.0,9136.18,20996.18,1201647.03,71,36.1069652,-112.11299720000001
6,NATCHEZ TRACE PKWY,9,"6,362,439",2.00%,TN-MS-AL,SER,46320.02,5887.28,0.0,52207.3,34.54,60.16,94.7,52302.0,167,33.76686420000001,-89.01875109999999
7,VIETNAM VETERANS MEM,10,"4,719,148",1.48%,DC,NCR,2.18,0.0,0.0,2.18,0.0,0.0,0.0,2.18,64,38.891293299999994,-77.04771319999998
8,INDEPENDENCE NHP,13,"4,576,456",1.44%,PA,NER,33.27,1.47,0.02,34.76,4.95,5.16,10.11,44.87,174,39.9495312,-75.14973189999998
9,CASTLE CLINTON NM,14,"4,533,564",1.42%,NY,NER,1.0,0.0,0.0,1.0,0.0,0.0,0.0,1.0,11,40.7034401,-74.0168023
10,STATUE OF LIBERTY NM,16,"4,335,431",1.36%,NY-NJ,NER,58.38,0.0,0.0,58.38,0.0,0.0,0.0,58.38,168,40.6892494,-74.04450039999998
11,ZION NP,17,"4,320,033",1.36%,UT,IMR,143788.46,0.0,0.0,143788.46,5.13,3449.07,3454.2,147242.66,128,37.298202200000006,-113.02630049999999
12,GULF ISLANDS NS,18,"4,229,968",1.33%,FL-MS,SER,95223.93,2.09,4553.25,99779.27,37807.56,718.69,38526.25,138305.52,178,30.391851399999997,-88.791067
13,GLEN CANYON NRA,20,"4,219,441",1.33%,AZ-UT,IMR,1238621.99,0.0,1141.85,1239763.84,14352.78,0.0,14352.78,1254116.62,3,37.3867256,-110.84242569999999
14,YELLOWSTONE NP,21,"4,115,000",1.29%,ID-MT-WY,IMR,2219789.13,0.0,0.0,2219789.13,0.0,1.58,1.58,2219790.71,206,44.427963,-110.58845500000001
15,YOSEMITE NP,23,"4,009,436",1.26%,CA,PWR,759690.11,10.83,319.11,760020.05,1502.7,224.75,1727.45,761747.5,70,37.8651011,-119.5383294
16,CAPE COD NS,24,"3,926,462",1.23%,MA,NER,27114.3,403.64,31.86,27549.8,14556.22,1502.28,16058.5,43608.3,211,41.904347200000004,-69.9789243
17,ACADIA NP,26,"3,537,575",1.11%,ME,NER,37438.18,10707.9,24.27,48170.35,48.22,856.69,904.91,49075.26,21,44.3385559,-68.27333459999998
18,GRAND TETON NP,27,"3,491,151",1.10%,WY,IMR,273477.58,165.59,34984.62,308627.79,496.6,919.97,1416.57,310044.36,6,43.7904282,-110.68176270000001
19,COLONIAL NHP,28,"3,294,224",1.04%,VA,NER,8048.82,556.47,0.0,8605.29,68.83,2.79,71.62,8676.91,41,37.229133700000006,-76.50390329999998
20,THOMAS JEFFERSON MEM,31,"3,198,859",1.01%,DC,NCR,18.36,0.0,0.0,18.36,0.0,0.0,0.0,18.36,161,38.88138060000001,-77.0364536
21,OLYMPIC NP,32,"3,104,455",0.98%,WA,PWR,913409.19,64.88,100.0,913574.07,8749.28,326.06,9075.34,922649.41,97,47.8021067,-123.6043524
22,BOSTON NHP,33,"3,053,241",0.96%,MA,NER,37.96,0.0,0.0,37.96,5.09,0.77,5.86,43.82,176,42.373162,-71.056834
23,GLACIER NP,34,"2,965,309",0.93%,MT,IMR,1012842.8,54.34,0.0,1012897.14,2.51,226.34,228.85,1013125.99,177,48.7596128,-113.7870225
24,JOSHUA TREE NP,35,"2,942,382",0.92%,CA,PWR,779163.11,0.0,25.4,779188.51,2572.74,8874.49,11447.23,790635.74,154,33.873415,-115.9009923
25,BRYCE CANYON NP,37,"2,679,478",0.84%,UT,IMR,35832.58,0.0,0.0,35832.58,0.0,2.5,2.5,35835.08,1,37.593037700000004,-112.1870895
26,CAPE HATTERAS NS,38,"2,591,056",0.81%,NC,SER,24470.1,0.0,5880.0,30350.1,0.0,0.55,0.55,30350.65,186,35.2426424,-75.5392755
27,POINT REYES NS,40,"2,397,722",0.75%,CA,PWR,64856.5,42.98,334.87,65234.35,2696.98,3122.05,5819.03,71053.38,157,38.0722909,-122.881743
28,ROCK CREEK PARK,41,"2,395,342",0.75%,DC,NCR,1755.21,0.0,0.0,1755.21,0.0,0.0,0.0,1755.21,50,38.937563899999994,-77.0479223
29,ASSATEAGUE ISLAND NS,43,"2,136,889",0.67%,MD-VA 2/,NER,8983.42,102.16,9842.69,18928.27,22389.33,28.9,22418.23,41346.5,101,38.0607973,-75.2362382
30,CUYAHOGA VALLEY NP,44,"2,096,053",0.66%,OH,MWR,19057.54,1453.68,0.0,20511.22,8458.96,3601.7,12060.66,32571.88,69,41.2808248,-81.56781199999998
31,GATEWAY ARCH NP,45,"2,016,180",0.63%,MO-IL,MWR,85.46,5.5,0.0,90.96,16.64,85.23,101.87,192.83,207,38.6246855,-90.1854426
32,VALLEY FORGE NHP,46,"1,881,362",0.59%,PA,NER,3146.57,29.13,0.0,3175.7,218.03,74.81,292.84,3468.54,217,40.1017506,-75.446922
33,DEATH VALLEY NP,50,"1,678,660",0.53%,CA-NV,PWR,3320765.33,0.0,393.99,3321159.32,42187.93,9634.17,51822.1,3372981.42,126,36.5053891,-117.0794078
34,ARCHES NP,51,"1,663,557",0.52%,UT,IMR,76545.95,0.0,0.0,76545.95,133.03,0.0,133.03,76678.98,159,38.733081,-109.5925139
35,CANAVERAL NS,52,"1,657,855",0.52%,FL,SER,17735.69,0.0,39912.0,57647.69,0.0,14.0,14.0,57661.69,164,28.789536,-80.75637540000001
36,SLEEPING BEAR DUNES NL,53,"1,643,600",0.52%,MI,MWR,57135.8,649.69,1.85,57787.34,12067.29,1397.16,13464.45,71251.79,187,44.8734043,-86.0466574
37,HOT SPRINGS NP,55,"1,506,887",0.47%,AR,MWR,5003.0,0.0,0.0,5003.0,333.3,215.46,548.76,5551.76,57,34.521691499999996,-93.0423545
38,CHICKASAW NRA,57,"1,477,906",0.46%,OK,IMR,9695.79,9.2,189.14,9894.13,4.5,0.0,4.5,9898.63,90,34.461543299999995,-97.0064043
39,LAKE ROOSEVELT NRA,60,"1,276,722",0.40%,WA 1/,PWR,331.31,0.0,100059.0,100390.31,0.0,0.0,0.0,100390.31,229,48.1011309,-118.24663899999999
40,SHENANDOAH NP,61,"1,264,880",0.40%,VA,NER,197536.49,818.31,0.0,198354.8,72.11,796.86,868.97,199223.77,135,38.29275579999999,-78.67958359999999
41,SEQUOIA NP,65,"1,229,594",0.39%,CA,PWR,403893.31,15.36,0.0,403908.67,0.0,153.96,153.96,404062.63,77,36.48636679999999,-118.56575159999998
42,CAPITOL REEF NP,66,"1,227,627",0.39%,UT,IMR,241223.33,0.0,0.0,241223.33,681.17,0.0,681.17,241904.5,85,38.3669703,-111.26150420000002
43,SAN ANTONIO MISSIONS NHP,67,"1,208,104",0.38%,TX,IMR,476.15,70.47,0.0,546.62,262.49,138.66,401.15,947.77,72,29.361157000000002,-98.478431
44,HAWAII VOLCANOES NP,69,"1,116,891",0.35%,HI,PWR,325605.28,0.0,0.0,325605.28,0.0,0.0,0.0,325605.28,52,19.419369699999997,-155.2884969
45,AMISTAD NRA,70,"1,111,770",0.35%,TX,IMR,57292.44,0.0,0.0,57292.44,0.0,1207.56,1207.56,58500.0,48,29.495577500000003,-100.99526850000001
46,LAKE MEREDITH NRA,71,"1,106,233",0.35%,TX,IMR,43964.51,0.0,1013.0,44977.51,0.0,0.12,0.12,44977.63,87,35.6438165,-101.58630579999999
47,HALEAKALA NP,73,"1,044,084",0.33%,HI,PWR,33264.47,0.0,0.0,33264.47,0.15,0.0,0.15,33264.62,89,20.7096921,-156.25351469999998
48,MINUTE MAN NHP,76,"1,014,803",0.32%,MA,NER,787.69,7.47,6.78,801.94,125.53,100.29,225.82,1027.76,103,42.457997799999994,-71.32152049999998
49,BADLANDS NP,77,"1,008,942",0.32%,SD,MWR,111487.63,122321.5,0.0,233809.13,39.24,8907.57,8946.81,242755.94,133,43.8553804,-102.3396912
50,MUIR WOODS NM,78,"957,932",0.30%,CA,PWR,522.98,0.0,0.0,522.98,30.57,0.0,30.57,553.55,120,37.8970199,-122.58111770000001
51,SAGUARO NP,79,"957,405",0.30%,AZ,IMR,87908.7,13.64,0.0,87922.34,3009.67,783.71,3793.38,91715.72,7,32.2967359,-111.166615
52,GETTYSBURG NMP,80,"949,989",0.30%,PA,NER,4572.8,590.81,0.01,5163.62,5.28,863.75,869.03,6032.65,25,39.813249400000004,-77.23373199999999
53,CURECANTI NRA,82,"931,512",0.29%,CO 1/,IMR,1122.3,1.38,42456.04,43579.72,10.84,0.0,10.84,43590.56,51,38.465746100000004,-107.1666799
54,SAN JUAN NHS,84,"910,405",0.29%,PR,SER,53.2,0.0,0.0,53.2,21.93,0.0,21.93,75.13,193,18.4686841,-66.1207495
55,ROSS LAKE NRA,85,"892,044",0.28%,WA,PWR,115959.59,0.0,0.0,115959.59,1609.37,5.63,1615.0,117574.59,13,48.69987329999999,-121.01983659999999
56,CABRILLO NM,88,"842,104",0.26%,CA,PWR,159.94,0.0,0.0,159.94,0.0,0.0,0.0,159.94,209,32.673542600000005,-117.24251909999998
57,PICTURED ROCKS NL,89,"815,308",0.26%,MI,MWR,35705.86,21.3,44.16,35771.32,13939.75,23524.76,37464.51,73235.83,14,46.56143839999999,-86.3213064
58,CASTILLO DE SAN MARCOS NM,94,"748,058",0.24%,FL,SER,19.31,0.0,0.0,19.31,0.06,0.01,0.07,19.38,166,29.89786179999999,-81.31151870000002
59,CANYONLANDS NP,95,"739,449",0.23%,UT,IMR,337269.4,301.03,0.0,337570.43,27.4,0.0,27.4,337597.83,185,38.3268693,-109.87825919999999
60,SAINT CROIX NSR,96,"724,644",0.23%,MN-WI,MWR,20355.16,11057.45,804.44,32217.05,30716.34,4533.24,35249.58,67466.63,175,45.416208700000006,-92.6467858
61,CRATER LAKE NP,97,"720,659",0.23%,OR,PWR,183223.77,0.0,0.0,183223.77,0.0,0.28,0.28,183224.05,112,42.868441100000005,-122.16847849999999
62,KINGS CANYON NP,98,"699,023",0.22%,CA,PWR,461846.05,0.0,0.0,461846.05,0.0,55.15,55.15,461901.2,212,36.88785479999999,-118.55514769999999
63,CUMBERLAND GAP NHP,99,"684,191",0.22%,KY-TN-VA,SER,24344.95,185.61,0.0,24530.56,10.06,6.21,16.27,24546.83,62,36.6039715,-83.67296999999999
64,WIND CAVE NP,100,"656,397",0.21%,SD,MWR,33970.84,0.0,0.0,33970.84,0.0,0.0,0.0,33970.84,145,43.6045811,-103.42134329999999
65,PETRIFIED FOREST NP,101,"644,922",0.20%,AZ,IMR,147024.45,0.0,0.0,147024.45,35900.69,38465.07,74365.76,221390.21,18,34.909989700000004,-109.8067916
66,CEDAR BREAKS NM,102,"644,515",0.20%,UT,IMR,6154.6,0.0,0.0,6154.6,0.0,0.0,0.0,6154.6,94,37.6359544,-112.84502479999999
67,PADRE ISLAND NS,104,"616,033",0.19%,TX,IMR,130355.46,0.0,0.0,130355.46,78.81,0.0,78.81,130434.27,36,27.4241558,-97.2991836
68,WHITE SANDS NM,106,"603,008",0.19%,NM,IMR,142653.49,0.0,1050.06,143703.55,0.0,0.0,0.0,143703.55,140,32.3823687,-106.49065259999999
69,EVERGLADES NP,108,"597,124",0.19%,FL 6/,SER,1400253.48,0.0,0.0,1400253.48,0.0,285.82,285.82,1400539.3,83,25.2866155,-80.89865089999998
70,GOVERNORS ISLAND NM,110,"589,798",0.19%,NY,NER,22.4,0.01,0.0,22.41,0.0,0.5,0.5,22.91,27,40.691987899999994,-74.01599499999998
71,MESA VERDE NP,112,"563,420",0.18%,CO,IMR,52253.29,0.0,0.0,52253.29,41.01,190.87,231.88,52485.17,68,37.2308729,-108.4618335
72,MANASSAS NBP,113,"542,004",0.17%,VA,NCR,4401.46,22.33,0.0,4423.79,0.0,649.65,649.65,5073.44,15,38.8134115,-77.52216779999998
73,FORD'S THEATRE NHS,114,"533,410",0.17%,DC,NCR,0.3,0.0,0.0,0.3,0.0,0.0,0.0,0.3,54,38.89667,-77.0256687
74,MAMMOTH CAVE NP,115,"533,206",0.17%,KY,SER,52003.24,0.0,0.0,52003.24,814.75,1193.92,2008.67,54011.91,28,37.18699779999999,-86.100528
75,STONEWALL NM,117,"511,220",0.16%,NY,NER,0.12,0.0,0.0,0.12,7.53,0.05,7.58,7.7,137,40.7335757,-74.00252789999998
76,LOWELL NHP,118,"507,276",0.16%,MA,NER,10.62,21.04,0.0,31.66,5.38,104.63,110.01,141.67,221,42.6472093,-71.30956239999998
77,LASSEN VOLCANIC NP,119,"499,435",0.16%,CA,PWR,106504.8,0.0,0.0,106504.8,0.0,84.22,84.22,106589.02,2,40.497659999999996,-121.42065520000001
78,WHITE HOUSE,121,"485,974",0.15%,DC,NCR,18.07,0.0,0.0,18.07,0.0,0.0,0.0,18.07,153,38.8976763,-77.0365298
79,REDWOOD NP,122,"482,536",0.15%,CA,PWR,77715.18,29.36,1.92,77746.46,61101.92,150.99,61252.91,138999.37,8,41.213178799999994,-124.00462749999998
80,VICKSBURG NMP,123,"474,387",0.15%,MS-LA,SER,1760.05,-0.95,0.0,1759.1,4.84,50.61,55.45,1814.55,22,32.3548532,-90.8452588
81,BISCAYNE NP,124,"469,253",0.15%,FL,SER,171376.96,0.0,18.45,171395.41,1215.85,359.85,1575.7,172971.11,95,25.4824229,-80.20831030000002
82,DEVILS TOWER NM,125,"468,216",0.15%,WY,IMR,1346.91,0.0,0.0,1346.91,0.0,0.3,0.3,1347.21,117,44.5902098,-104.7146168
83,CARLSBAD CAVERNS NP,126,"465,912",0.15%,NM,IMR,46427.26,0.0,0.0,46427.26,0.0,339.19,339.19,46766.45,73,32.1478553,-104.5567138
84,BIG BEND NP,130,"440,091",0.14%,TX,IMR,775273.38,0.0,0.0,775273.38,2606.87,23282.96,25889.83,801163.21,102,29.1274869,-103.2425379
85,CANYON DE CHELLY NM,131,"439,306",0.14%,AZ,IMR,0.0,0.0,0.0,0.0,0.0,83840.0,83840.0,83840.0,173,36.1336111,-109.46944440000001
86,CAPE LOOKOUT NS,135,"408,399",0.13%,NC,SER,13915.7,11243.4,14.52,25173.62,3048.16,21.58,3069.74,28243.36,106,34.6227474,-76.52462070000001
87,MONTEZUMA CASTLE NM,136,"390,151",0.12%,AZ,IMR,998.69,0.0,0.0,998.69,0.0,16.83,16.83,1015.52,12,34.6115755,-111.83498540000001
88,WAR IN THE PACIFIC NHP,137,"387,856",0.12%,GUAM,PWR,957.52,0.0,0.73,958.25,871.96,200.44,1072.4,2030.65,58,13.4737049,144.7090803
89,SHILOH NMP,139,"376,099",0.12%,TN-MS,SER,5482.61,1.19,0.0,5483.8,988.15,1768.15,2756.3,8240.1,144,35.142936999999996,-88.34084990000001
90,COLORADO NM,140,"375,467",0.12%,CO,IMR,20536.39,0.0,0.0,20536.39,0.0,0.0,0.0,20536.39,93,39.0575219,-108.6938999
91,CHANNEL ISLANDS NP,141,"366,250",0.12%,CA,PWR,69425.66,0.0,9592.96,79018.62,124554.15,45988.23,170542.38,249561.0,88,33.996073700000004,-119.7691632
92,WRIGHT BROTHERS NMEM,143,"360,669",0.11%,NC,SER,421.81,0.0,0.0,421.81,6.63,0.0,6.63,428.44,214,36.017318700000004,-75.6692094
93,VANDERBILT MANSION NHS,144,"340,870",0.11%,NY,NER,211.65,0.0,0.0,211.65,0.0,0.0,0.0,211.65,9,41.7963461,-73.9423869
94,ANTIETAM NB,145,"326,197",0.10%,MD,NCR,1943.11,799.99,0.0,2743.1,20.98,464.81,485.79,3228.89,231,39.46874520000001,-77.7387923
95,KENAI FJORDS NP,146,"321,596",0.10%,AK,AKR,603129.86,0.0,0.0,603129.86,19302.0,47218.19,66520.19,669650.05,129,59.69222219999999,-150.6155555
96,NEZ PERCE NHP,150,"307,645",0.10%,MT-ID-OR-WA,PWR,1972.61,1885.33,5.12,3863.06,261.2,440.67,701.87,4564.93,139,46.4475305,-116.8227368
97,FIRE ISLAND NS,151,"305,710",0.10%,NY,NER,3090.67,3151.51,0.0,6242.18,12422.73,915.74,13338.47,19580.65,115,40.6553691,-73.10343069999998
98,DINOSAUR NM,152,"304,468",0.10%,CO-UT,IMR,203097.93,2667.58,0.0,205765.51,50.96,4465.45,4516.41,210281.92,59,40.4927109,-108.9416357
99,SALEM MARITIME NHS,153,"300,475",0.09%,MA,NER,8.93,0.0,0.0,8.93,0.0,0.09,0.09,9.02,78,42.521316299999995,-70.8866429
100,MORRISTOWN NHP,158,"279,393",0.09%,NJ,NER,1704.74,0.95,0.0,1705.69,0.0,5.03,5.03,1710.72,111,40.7648452,-74.53168070000001
101,PETROGLYPH NM,160,"268,613",0.08%,NM,IMR,2940.88,0.0,0.0,2940.88,4156.7,111.72,4268.42,7209.3,215,35.13678170000001,-106.7405057
102,STONES RIVER NB,161,"266,503",0.08%,TN,SER,649.49,0.0,0.0,649.49,17.14,42.86,60.0,709.49,205,35.8731131,-86.43468999999997
103,HARPERS FERRY NHP,162,"265,737",0.08%,MD-VA-WV,NCR,3167.77,53.67,338.97,3560.41,59.1,49.68,108.78,3669.19,107,39.3228225,-77.72920719999998
104,ORGAN PIPE CACTUS NM,167,"260,375",0.08%,AZ,IMR,329114.5,24.42,226.37,329365.29,1280.0,43.57,1323.57,330688.86,223,32.087759600000005,-112.90588020000001
105,SAN JUAN ISLAND NHP,168,"255,032",0.08%,WA,PWR,2114.52,0.0,0.0,2114.52,26.54,4.5,31.04,2145.56,169,48.4550358,-122.97730659999999
106,APOSTLE ISLANDS NL,169,"252,920",0.08%,WI,MWR,42160.7,0.0,0.0,42160.7,27216.73,0.0,27216.73,69377.43,213,46.9302046,-90.6333321
107,RIVER RAISIN NBP,170,"240,548",0.08%,MI,MWR,42.18,0.0,0.0,42.18,0.0,0.0,0.0,42.18,35,41.9112005,-83.37672649999998
108,VOYAGEURS NP,171,"239,656",0.08%,MN,MWR,133108.69,0.0,139.03,133247.72,83903.18,1049.25,84952.43,218200.15,125,48.4840955,-92.8270873
109,BIGHORN CANYON NRA,173,"235,570",0.07%,MT-WY,IMR,47986.04,889.89,19614.94,68490.87,1392.29,50413.06,51805.35,120296.22,61,45.3109005,-107.9359118
110,NATCHEZ NHP,174,"234,786",0.07%,MS,SER,85.98,0.0,0.0,85.98,5.02,17.3,22.32,108.3,194,31.559982,-91.405937
111,FEDERAL HALL NMEM,175,"230,634",0.07%,NY,NER,0.45,0.0,0.0,0.45,0.0,0.0,0.0,0.45,216,40.7073993,-74.0102088
112,PINNACLES NP,176,"222,152",0.07%,CA,PWR,26674.6,0.31,0.0,26674.91,0.0,10.82,10.82,26685.73,226,36.4905655,-121.18249250000001
113,DE SOTO NMEM,182,"210,993",0.07%,FL,SER,24.78,0.0,0.0,24.78,0.0,5.22,5.22,30.0,37,27.5222794,-82.6445936
114,WUPATKI NM,183,"205,122",0.06%,AZ,IMR,35401.83,0.0,0.0,35401.83,0.0,0.0,0.0,35401.83,152,35.5584745,-111.375095
115,PETERSBURG NB,185,"204,322",0.06%,VA,NER,2659.79,0.12,0.0,2659.91,0.0,6708.43,6708.43,9368.34,118,37.2438545,-77.3568983
116,RICHMOND NBP,187,"199,344",0.06%,VA,NER,3648.1,22.43,1.42,3671.95,3.7,4495.2,4498.9,8170.85,219,37.535554,-77.44578100000001
117,BANDELIER NM,188,"198,441",0.06%,NM,IMR,33654.44,0.0,0.0,33654.44,0.0,22.23,22.23,33676.67,40,35.7646658,-106.3228338
118,LINCOLN HOME NHS,189,"197,717",0.06%,IL,MWR,12.03,0.0,0.0,12.03,0.0,0.21,0.21,12.24,92,39.7973533,-89.64492539999998
119,SITKA NHP,190,"197,017",0.06%,AK,AKR,58.22,0.0,0.0,58.22,54.63,3.44,58.07,116.29,218,57.0489056,-135.3159583
120,COWPENS NB,191,"189,410",0.06%,SC,SER,790.9,0.0,0.0,790.9,46.63,4.03,50.66,841.56,74,35.1367361,-81.8181625
121,WALNUT CANYON NM,197,"167,736",0.05%,AZ,IMR,2922.77,0.0,0.0,2922.77,0.0,277.84,277.84,3200.61,110,35.1717266,-111.50927539999999
122,EL MALPAIS NM,198,"154,368",0.05%,NM,IMR,109946.76,0.0,0.0,109946.76,435.61,3964.74,4400.35,114347.11,208,34.9002575,-107.9942365
123,GREAT BASIN NP,200,"153,094",0.05%,NV,PWR,77180.0,0.0,0.0,77180.0,0.0,0.0,0.0,77180.0,44,38.98333299999999,-114.3
124,PISCATAWAY PARK,204,"146,364",0.05%,MD,NCR,1909.79,2670.72,0.0,4580.51,0.0,35.8,35.8,4616.31,16,38.690893,-77.070737
125,JOHNSTOWN FLOOD NMEM,205,"146,269",0.05%,PA,NER,167.77,1.24,0.0,169.01,5.55,3.2,8.75,177.76,220,40.328007899999996,-78.92043840000001
126,CONGAREE NP,206,"145,929",0.05%,SC,SER,26384.83,0.0,0.0,26384.83,0.0,255.16,255.16,26639.99,119,33.794800099999996,-80.78209620000001
127,PATERSON GREAT FALLS NHP,208,"143,604",0.05%,NJ,NER,0.39,0.0,0.0,0.39,50.47,0.46,50.93,51.32,96,40.9172641,-74.18118919999998
128,JEWEL CAVE NM,209,"142,356",0.04%,SD,MWR,1273.51,0.0,0.0,1273.51,0.0,0.0,0.0,1273.51,34,43.7303594,-103.8290512
129,SCOTTS BLUFF NM,211,"142,028",0.04%,NE,MWR,2953.94,0.27,0.0,2954.21,5.95,44.57,50.52,3004.73,121,41.8391527,-103.7115457
130,DEVILS POSTPILE NM,212,"139,724",0.04%,CA,PWR,800.19,0.0,0.0,800.19,0.0,0.0,0.0,800.19,66,37.625106200000005,-119.0849506
131,MINUTEMAN MISSILE NHS,213,"139,273",0.04%,SD,MWR,39.22,0.93,0.0,40.15,0.0,3.65,3.65,43.8,43,43.844547,-101.9011854
132,ANDERSONVILLE NHS,214,"138,164",0.04%,GA,SER,499.88,1.0,0.0,500.88,7.89,6.84,14.73,515.61,124,32.2002948,-84.1303207
133,HERBERT HOOVER NHS,215,"138,087",0.04%,IA,MWR,181.11,0.0,0.0,181.11,4.59,1.1,5.69,186.8,134,41.6689744,-91.3477571
134,SARATOGA NHP,217,"135,444",0.04%,NY,NER,3080.6,2.04,0.0,3082.64,59.18,437.32,496.5,3579.14,180,43.01230820000001,-73.6488883
135,LINCOLN BOYHOOD NMEM,218,"133,850",0.04%,IN,MWR,185.68,0.0,0.0,185.68,6.38,7.9,14.28,199.96,195,38.11391629999999,-86.99694140000001
136,LAVA BEDS NM,221,"127,771",0.04%,CA,PWR,46692.42,0.0,0.0,46692.42,0.0,0.0,0.0,46692.42,196,41.758837,-121.52666409999998
137,TIMPANOGOS CAVE NM,223,"121,311",0.04%,UT,IMR,250.0,0.0,0.0,250.0,0.0,0.0,0.0,250.0,191,40.4405549,-111.7094462
138,ADAMS NHP,225,"121,007",0.04%,MA,NER,9.17,0.0,0.0,9.17,4.0,10.65,14.65,23.82,230,42.25235319999999,-71.00398220000001
139,VIRGIN ISLANDS NP,227,"112,287",0.04%,VI,SER,13102.24,3.0,0.0,13105.24,133.48,1705.81,1839.29,14944.53,113,18.3424047,-64.74857589999999
140,RAINBOW BRIDGE NM,229,"110,904",0.03%,UT,IMR,160.0,0.0,0.0,160.0,0.0,0.0,0.0,160.0,65,37.0774203,-110.964382
141,CHRISTIANSTED NHS,230,"107,494",0.03%,VI,SER,26.24,0.0,0.0,26.24,0.91,0.0,0.91,27.15,98,17.7471645,-64.7021636
142,WACO MAMMOTH NM,231,"106,932",0.03%,TX,IMR,4.93,2.18,0.0,7.11,100.12,0.0,100.12,107.23,171,31.606733600000002,-97.1758392
143,MANZANAR NHS,233,"104,081",0.03%,CA,PWR,813.81,0.0,0.0,813.81,0.0,0.0,0.0,813.81,30,36.72722879999999,-118.1527894
144,CORONADO NMEM,234,"103,218",0.03%,AZ,IMR,4828.22,0.0,0.0,4828.22,0.0,2.0,2.0,4830.22,222,31.3458652,-110.25377549999999
145,NATURAL BRIDGES NM,235,"103,118",0.03%,UT,IMR,7620.49,16.0,0.0,7636.49,0.0,0.0,0.0,7636.49,17,37.604056,-110.0052043
146,PEA RIDGE NMP,237,"101,969",0.03%,AR,MWR,4278.75,0.0,0.0,4278.75,21.6,0.0,21.6,4300.35,190,36.443765500000005,-94.025807
147,TUZIGOOT NM,238,"98,090",0.03%,AZ,IMR,366.42,15.11,0.0,381.53,0.0,430.36,430.36,811.89,109,34.768777899999996,-112.0268895
148,STEAMTOWN NHS,239,"97,950",0.03%,PA,NER,51.29,0.0,0.0,51.29,10.55,0.64,11.19,62.48,4,41.40790579999999,-75.6720114
149,GAULEY RIVER NRA,240,"97,778",0.03%,WV,NER,4817.11,61.67,43.36,4922.14,989.83,5654.49,6644.32,11566.46,24,38.208965500000005,-81.01473
150,NINETY SIX NHS,241,"95,550",0.03%,SC,SER,1021.94,0.0,0.0,1021.94,0.0,0.0,0.0,1021.94,162,34.146721899999996,-82.0235684
151,GRAND PORTAGE NM,242,"94,137",0.03%,MN,MWR,709.97,0.0,0.0,709.97,0.0,0.0,0.0,709.97,31,47.9607126,-89.68658609999999
152,GREENBELT PARK,245,"85,260",0.03%,MD,NCR,1105.79,0.0,0.0,1105.79,58.3,11.33,69.63,1175.42,182,38.983031,-76.90114270000001
153,MONOCACY NB,246,"84,901",0.03%,MD,NCR,1337.18,195.37,0.0,1532.55,51.82,42.25,94.07,1626.62,179,39.3725838,-77.39898199999998
154,FLORISSANT FOSSIL BEDS NM,249,"79,568",0.03%,CO,IMR,5992.32,0.0,0.0,5992.32,5.77,0.0,5.77,5998.09,114,38.9136173,-105.28540759999998
155,GENERAL GRANT NMEM,252,"73,336",0.02%,NY,NER,0.76,0.0,0.0,0.76,0.0,0.0,0.0,0.76,204,40.8134045,-73.9630671
156,PIPESTONE NM,253,"73,267",0.02%,MN,MWR,281.78,0.0,0.0,281.78,0.0,0.0,0.0,281.78,197,44.01364909999999,-96.3247472
157,KALAUPAPA NHP,254,"72,146",0.02%,HI,PWR,22.88,0.0,0.0,22.88,10684.0,72.0,10756.0,10778.88,26,21.1924062,-156.9665093
158,CARL SANDBURG HOME NHS,255,"72,047",0.02%,NC,SER,263.52,0.0,0.0,263.52,0.0,4.97,4.97,268.49,142,35.2714108,-82.44724709999998
159,FREDERICK DOUGLASS NHS,256,"70,869",0.02%,DC,NCR,8.57,0.0,0.0,8.57,0.0,0.0,0.0,8.57,123,38.8632895,-76.9851973
160,MANHATTAN PROJECT NHP,257,"69,543",0.02%,NM-TN-WA,IMR,0.0,0.0,113.61,113.61,0.0,0.0,0.0,113.61,53,35.8825835,-106.30184750000001
161,OREGON CAVES NM & PRES,259,"67,417",0.02%,OR,PWR,4554.03,0.0,0.0,4554.03,0.0,0.0,0.0,4554.03,150,42.095462,-123.40428840000001
162,CAPULIN VOLCANO NM,260,"67,411",0.02%,NM,IMR,792.84,0.0,0.0,792.84,0.0,0.0,0.0,792.84,146,36.7810744,-103.9695127
163,CHAMIZAL NMEM,261,"66,479",0.02%,TX,IMR,54.9,0.0,0.0,54.9,0.0,0.0,0.0,54.9,132,31.767143800000003,-106.4542166
164,HAMILTON GRANGE NMEM,262,"66,216",0.02%,NY,NER,0.11,0.93,0.0,1.04,0.0,0.71,0.71,1.75,228,40.8213537,-73.9473103
165,EL MORRO NM,263,"65,453",0.02%,NM,IMR,1039.92,0.0,0.0,1039.92,0.0,238.8,238.8,1278.72,67,35.03963579999999,-108.3450813
166,CASA GRANDE RUINS NM,265,"62,995",0.02%,AZ,IMR,472.5,0.0,0.0,472.5,0.0,0.0,0.0,472.5,181,32.995458899999996,-111.53552820000002
167,NAVAJO NM,267,"61,195",0.02%,AZ,IMR,360.0,0.0,0.0,360.0,0.0,0.0,0.0,360.0,42,35.900012100000005,-109.0339832
168,ROGER WILLIAMS NMEM,268,"60,709",0.02%,RI,NER,4.56,0.0,0.0,4.56,0.0,0.0,0.0,4.56,224,41.831331799999994,-71.41074029999999
169,CHIRICAHUA NM,269,"60,577",0.02%,AZ,IMR,12022.38,0.0,0.0,12022.38,0.0,2.35,2.35,12024.73,198,32.0135714,-109.3422953
170,MOORES CREEK NB,272,"58,531",0.02%,NC,SER,85.35,2.4,0.0,87.75,0.0,0.0,0.0,87.75,55,34.457789700000006,-78.109585
171,CHACO CULTURE NHP,274,"57,781",0.02%,NM,IMR,32840.14,0.0,0.0,32840.14,0.0,1120.05,1120.05,33960.19,172,36.05299979999999,-107.955924
172,HOPEWELL CULTURE NHP,275,"57,335",0.02%,OH,MWR,1138.3,8.05,0.0,1146.35,0.11,623.25,623.36,1769.71,81,39.376106400000005,-83.00650970000001
173,BIG HOLE NB,276,"56,943",0.02%,MT,PWR,655.61,0.0,0.0,655.61,0.0,320.0,320.0,975.61,151,45.6413441,-113.6434203
174,DRY TORTUGAS NP,277,"56,810",0.02%,FL,SER,61481.22,0.0,0.0,61481.22,3220.0,0.0,3220.0,64701.22,76,24.628477,-82.87318739999998
175,CUMBERLAND ISLAND NS,278,"55,650",0.02%,GA,SER,18866.37,1.63,656.92,19524.92,13820.15,3001.76,16821.91,36346.83,38,30.8659411,-81.45052940000001
176,EFFIGY MOUNDS NM,279,"55,576",0.02%,IA,MWR,2526.39,0.0,0.0,2526.39,0.0,0.0,0.0,2526.39,116,43.089214,-91.20064190000001
177,AZTEC RUINS NM,280,"54,933",0.02%,NM,IMR,266.78,0.0,0.0,266.78,6.78,44.84,51.62,318.4,127,36.837208600000004,-108.00009299999999
178,ELEANOR ROOSEVELT NHS,281,"54,649",0.02%,NY,NER,180.5,0.0,0.0,180.5,0.0,0.0,0.0,180.5,99,41.763138899999994,-73.89909759999998
179,NEW ORLEANS JAZZ NHP,282,"54,483",0.02%,LA,SER,0.0,0.0,0.0,0.0,5.13,0.0,5.13,5.13,104,29.958455800000003,-90.06078959999998
180,JIMMY CARTER NHS,284,"51,680",0.02%,GA,SER,36.81,8.81,1.92,47.54,0.0,24.67,24.67,72.21,60,32.0365107,-84.3925979
181,ANDREW JOHNSON NHS,285,"50,671",0.02%,TN,SER,16.68,0.0,0.0,16.68,0.0,0.0,0.0,16.68,86,36.1627802,-82.8294485
182,WHITMAN MISSION NHS,288,"49,274",0.02%,WA,PWR,138.53,0.0,0.0,138.53,0.0,0.0,0.0,138.53,79,46.04132509999999,-118.46391770000001
183,HORSESHOE BEND NMP,289,"48,491",0.02%,AL,SER,2040.0,0.0,0.0,2040.0,0.0,0.0,0.0,2040.0,105,32.97832229999999,-85.73100759999998
184,THOMAS EDISON NHP,290,"47,297",0.01%,NJ,NER,21.25,0.0,0.0,21.25,0.0,0.0,0.0,21.25,189,40.783997799999995,-74.2340291
185,JOHN MUIR NHS,291,"46,957",0.01%,CA,PWR,338.3,0.0,0.0,338.3,3.9,1.94,5.84,344.14,227,37.99216759999999,-122.13097040000001
186,HOPEWELL FURNACE NHS,292,"46,407",0.01%,PA,NER,848.06,0.0,0.0,848.06,0.0,0.0,0.0,848.06,156,40.209726700000004,-75.7691263
187,AFRICAN BURIAL GROUND NM,293,"45,035",0.01%,NY,NER,0.35,0.0,0.0,0.35,0.0,0.0,0.0,0.35,202,40.7145049,-74.0043973
188,WOMEN'S RIGHTS NHP,296,"42,784",0.01%,NY,NER,7.03,0.09,0.0,7.12,0.1,0.22,0.32,7.44,32,42.910773,-76.800178
189,EISENHOWER NHS,297,"42,036",0.01%,PA,NER,687.37,3.09,0.0,690.46,0.0,0.0,0.0,690.46,192,39.79391079999999,-77.26331590000001
190,FRIENDSHIP HILL NHS,298,"41,678",0.01%,PA,NER,661.44,0.0,0.0,661.44,0.0,13.12,13.12,674.56,199,39.777614899999996,-79.9314768
191,TUMACACORI NHP,300,"40,810",0.01%,AZ,IMR,357.74,0.0,0.0,357.74,0.64,1.94,2.58,360.32,149,31.56781969999999,-111.0510277
192,HOVENWEEP NM,301,"40,574",0.01%,CO-UT,IMR,784.93,0.0,0.0,784.93,0.0,0.0,0.0,784.93,122,37.383762299999994,-109.0726022
193,SAGAMORE HILL NHS,302,"39,970",0.01%,NY,NER,83.02,0.0,0.0,83.02,0.0,0.0,0.0,83.02,75,40.88552929999999,-73.5010296
194,TONTO NM,303,"39,822",0.01%,AZ,IMR,1120.0,0.0,0.0,1120.0,0.0,0.0,0.0,1120.0,56,33.6452781,-111.1126846
195,PECOS NHP,305,"39,129",0.01%,NM,IMR,6408.18,0.0,0.0,6408.18,51.51,233.8,285.31,6693.49,155,35.549232399999994,-105.68844440000001
196,LAKE CHELAN NRA,306,"38,839",0.01%,WA,PWR,59337.22,11.83,0.0,59349.05,2210.44,386.78,2597.22,61946.27,80,48.352344,-120.68557709999999
197,TUSKEGEE INSTITUTE NHS,308,"37,486",0.01%,AL,SER,7.9,1.02,0.0,8.92,0.0,49.0,49.0,57.92,136,32.428134899999996,-85.7052446
198,WEIR FARM NHS,309,"35,382",0.01%,CT,NER,68.05,0.0,0.0,68.05,0.0,6.15,6.15,74.2,147,41.2565181,-73.45640230000002
199,CHARLES PINCKNEY NHS,312,"34,354",0.01%,SC,SER,28.45,0.0,0.0,28.45,0.0,0.0,0.0,28.45,184,32.8455749,-79.82395989999998
200,HARRY S TRUMAN NHS,313,"32,878",0.01%,MO,MWR,12.59,0.0,0.0,12.59,0.0,0.0,0.0,12.59,225,39.093754,-94.4233898
201,BUCK ISLAND REEF NM,315,"31,411",0.01%,VI,SER,880.0,0.0,18135.47,19015.47,0.0,0.0,0.0,19015.47,163,17.787094600000003,-64.62061059999999
202,BLUESTONE NSR,316,"31,316",0.01%,WV,NER,3032.0,0.0,0.0,3032.0,1236.0,41.51,1277.51,4309.51,23,37.3981898,-81.167565
203,ARKANSAS POST NMEM,318,"30,126",0.01%,AR,MWR,649.91,0.0,14.0,663.91,0.0,93.6,93.6,757.51,49,34.0210974,-91.34788509999998
204,NORTH CASCADES NP,319,"30,085",0.01%,WA,PWR,504654.18,0.0,0.0,504654.18,0.0,126.76,126.76,504780.94,47,48.7718174,-121.2984648
205,HAMPTON NHS,320,"29,615",0.01%,MD,NER,62.04,0.0,0.0,62.04,0.0,0.0,0.0,62.04,183,39.416328899999996,-76.58763189999998
206,CANE RIVER CREOLE NHP,325,"26,879",0.01%,LA,SER,62.39,0.0,0.0,62.39,4.64,138.47,143.11,205.5,29,31.665269300000002,-93.00336379999999
207,TUSKEGEE AIRMEN NHS,326,"26,829",0.01%,AL,SER,44.71,0.0,0.0,44.71,0.4,44.57,44.97,89.68,108,32.4572441,-85.680363
208,GRANT-KOHRS RANCH NHS,327,"26,676",0.01%,MT,IMR,1325.83,165.63,0.0,1491.46,69.47,57.5,126.97,1618.43,33,46.406069,-112.736682
209,ISLE ROYALE NP,330,"25,798",0.01%,MI,MWR,539281.91,0.0,0.0,539281.91,32508.39,0.0,32508.39,571790.3,148,47.9958654,-88.9092899
210,PIPE SPRING NM,331,"25,179",0.01%,AZ,IMR,40.0,0.0,0.0,40.0,0.0,0.0,0.0,40.0,158,36.862891299999994,-112.7397318
211,BENT'S OLD FORT NHS,334,"23,562",0.01%,CO,IMR,735.6,0.0,0.0,735.6,7.4,55.8,63.2,798.8,200,38.0404268,-103.4295033
212,RUSSELL CAVE NM,338,"21,620",0.01%,AL,SER,310.45,0.0,0.0,310.45,0.0,0.0,0.0,310.45,45,34.9764537,-85.81425709999998
213,FOSSIL BUTTE NM,339,"21,349",0.01%,WY,IMR,8198.0,0.0,0.0,8198.0,0.0,0.0,0.0,8198.0,165,41.85818039999999,-110.76588670000001
214,KEWEENAW NHP,340,"20,416",0.01%,MI,MWR,135.78,0.0,0.0,135.78,0.0,1734.22,1734.22,1870.0,19,47.242309399999996,-88.44810600000001
215,SPRINGFIELD ARMORY NHS,341,"20,104",0.01%,MA,NER,20.32,0.28,0.0,20.6,34.33,0.0,34.33,54.93,39,42.1072695,-72.58157380000002
216,MARTIN VAN BUREN NHS,342,"18,642",0.01%,NY,NER,44.53,7.64,0.0,52.17,0.24,232.52,232.76,284.93,201,42.36978250000001,-73.70417420000001
217,EDGAR ALLAN POE NHS,344,"16,314",0.01%,PA,NER,0.52,0.0,0.0,0.52,0.0,0.0,0.0,0.52,91,39.962057,-75.14998100000001
218,AGATE FOSSIL BEDS NM,345,"16,238",0.01%,NE,MWR,2270.33,459.75,0.0,2730.08,24.43,303.36,327.79,3057.87,10,42.425210299999996,-103.7342402
219,CAPE KRUSENSTERN NM,346,"15,087",0.00%,AK,AKR,617355.14,10033.51,0.0,627388.65,353.0,21354.5,21707.5,649096.15,20,67.12805560000001,-163.74527780000003
220,KOBUK VALLEY NP,347,"14,937",0.00%,AK,AKR,1714413.42,5.0,0.0,1714418.42,966.0,35331.74,36297.74,1750716.16,0,67.33561970000001,-159.1243161
221,WASHITA BATTLEFIELD NHS,350,"13,437",0.00%,OK,IMR,315.2,0.0,0.0,315.2,0.0,0.0,0.0,315.2,141,35.6199266,-99.70515470000001
222,MINIDOKA NHS,354,"11,567",0.00%,ID,PWR,299.79,88.51,0.0,388.3,8.0,0.0,8.0,396.3,100,42.6779139,-114.25120109999999
223,FIRST LADIES NHS,355,"11,447",0.00%,OH,MWR,0.46,0.0,0.0,0.46,0.0,0.0,0.0,0.46,203,40.797618,-81.37534099999998
224,SAUGUS IRON WORKS NHS,359,"10,660",0.00%,MA,NER,8.51,0.0,0.0,8.51,0.0,0.0,0.0,8.51,84,42.4679503,-71.00812719999998
225,FREDERICK LAW OLMSTED NHS,360,"9,854",0.00%,MA,NER,7.06,0.15,0.0,7.21,0.0,0.0,0.0,7.21,160,42.3254659,-71.1320319
226,THOMAS STONE NHS,364,"8,254",0.00%,MD,NER,328.25,0.0,0.0,328.25,0.0,0.0,0.0,328.25,130,38.530233,-77.0360161
227,SAND CREEK MASSACRE NHS,366,"6,006",0.00%,CO,IMR,3025.43,0.0,0.0,3025.43,0.0,9557.91,9557.91,12583.34,210,38.5447972,-102.50380009999999
228,EUGENE O'NEILL NHS,368,"3,432",0.00%,CA,PWR,13.19,0.0,0.0,13.19,0.0,0.0,0.0,13.19,131,37.825922600000006,-122.02727320000001
229,NICODEMUS NHS,369,"2,738",0.00%,KS,MWR,0.22,1.42,0.0,1.64,0.0,2.95,2.95,4.59,170,39.39323419999999,-99.6147017
230,CLARA BARTON NHS,375,425,0.00%,MD,NCR,8.59,0.0,0.0,8.59,0.0,0.0,0.0,8.59,188,38.967247799999996,-77.14078099999998
