,ParkName,Rank,Value,PercentOfTotal,State,Region,NPS Fee Acres,NPS Less Than Fee Acres,Other Federal Fee Acres,Subtotal Federal Acres,Other Public Acres,Private Acres,Subtotal Non-Federal Acres,Gross Area Acres,Unnamed: 0,latitude,longitude
0,BLUE RIDGE PKWY,1,"15,205,059",5.38%,NC-VA,NT,82413.04,2775.57,125.0,85313.61,259.58,10375.09,10634.67,95948.28,5,37.1199734,-80.12914119999998
1,GOLDEN GATE NRA,2,"14,540,338",5.14%,CA,PW,34434.3,22296.63,536.72,57267.65,19578.69,3186.37,22765.06,80032.71,138,37.8480359,-122.5295263
2,LAKE MEAD NRA,5,"6,285,439",2.22%,AZ-NV,PW,1392440.08,41.31,78230.76,1470712.15,2482.08,22611.3,25093.38,1495805.53,63,36.155086299999994,-114.4559303
3,LINCOLN MEMORIAL,6,"6,191,361",2.19%,DC,NC,7.29,0.0,0.0,7.29,0.0,0.0,0.0,7.29,46,38.8892686,-77.05017600000001
4,NATCHEZ TRACE PKWY,7,"5,560,668",1.97%,TN-MS-AL,SE,46320.02,5887.28,0.0,52207.3,34.54,60.16,94.7,52302.0,167,33.76686420000001,-89.01875109999999
5,GATEWAY NRA,8,"5,043,863",1.78%,NJ-NY,NE,20163.53,1.63,279.24,20444.4,5560.04,602.19,6162.23,26606.63,143,40.439669,-73.9887047
6,GULF ISLANDS NS,9,"4,973,462",1.76%,FL-MS,SE,95059.3,2.09,4553.25,99614.64,37655.56,718.69,38374.25,137988.89,178,30.391851399999997,-88.791067
7,CAPE COD NS,12,"4,441,290",1.57%,MA,NE,27113.49,403.64,31.86,27548.99,14556.22,1501.93,16058.15,43607.14,211,41.904347200000004,-69.9789243
8,VIETNAM VETERANS MEM,13,"4,424,407",1.56%,DC,NC,2.18,0.0,0.0,2.18,0.0,0.0,0.0,2.18,64,38.891293299999994,-77.04771319999998
9,GRAND CANYON NP,14,"4,421,352",1.56%,AZ,IM,1180650.85,0.0,0.0,1180650.85,11860.0,24680.5,36540.5,1217191.35,71,36.1069652,-112.11299720000001
10,YOSEMITE NP,17,"3,853,404",1.36%,CA,PW,759210.11,10.83,319.11,759540.05,1502.7,224.75,1727.45,761267.5,70,37.8651011,-119.5383294
11,INDEPENDENCE NHP,19,"3,594,549",1.27%,PA,NE,33.27,0.6,0.0,33.87,4.95,6.03,10.98,44.85,174,39.9495312,-75.14973189999998
12,YELLOWSTONE NP,20,"3,447,729",1.22%,ID-MT-WY,IM,2219789.13,0.0,0.0,2219789.13,0.0,1.58,1.58,2219790.71,206,44.427963,-110.58845500000001
13,COLONIAL NHP,21,"3,274,187",1.16%,VA,NE,8048.82,556.47,0.0,8605.29,68.83,2.79,71.62,8676.91,41,37.229133700000006,-76.50390329999998
14,CASTLE CLINTON NM,23,"3,264,439",1.15%,NY,NE,1.0,0.0,0.0,1.0,0.0,0.0,0.0,1.0,11,40.7034401,-74.0168023
15,STATUE OF LIBERTY NM,26,"3,029,443",1.07%,NY-NJ,NE,58.38,0.0,0.0,58.38,0.0,2.48,2.48,60.86,168,40.6892494,-74.04450039999998
16,ZION NP,27,"2,973,607",1.05%,UT,IM,143068.03,0.0,0.0,143068.03,0.0,3529.37,3529.37,146597.4,128,37.298202200000006,-113.02630049999999
17,OLYMPIC NP,28,"2,824,908",1.00%,WA,PW,913381.27,64.88,100.0,913546.15,8749.47,354.48,9103.95,922650.1,97,47.8021067,-123.6043524
18,GRAND TETON NP,30,"2,705,256",0.96%,WY,IM,272751.26,8.85,34984.62,307744.73,1379.66,919.83,2299.49,310044.22,6,43.7904282,-110.68176270000001
19,BOSTON NHP,31,"2,629,064",0.93%,MA,NE,37.46,0.0,0.0,37.46,5.59,0.77,6.36,43.82,176,42.373162,-71.056834
20,THOMAS JEFFERSON MEM,32,"2,613,131",0.92%,DC,NC,18.36,0.0,0.0,18.36,0.0,0.0,0.0,18.36,161,38.88138060000001,-77.0364536
21,ACADIA NP,34,"2,431,052",0.86%,ME,NE,35763.18,10684.4,21.77,46469.35,50.22,938.01,988.23,47457.58,21,44.3385559,-68.27333459999998
22,POINT REYES NS,35,"2,412,663",0.85%,CA,PW,64856.5,42.98,334.87,65234.35,2696.98,3124.08,5821.06,71055.41,157,38.0722909,-122.881743
23,CAPE HATTERAS NS,36,"2,302,040",0.81%,NC,SE,24470.1,0.0,5880.0,30350.1,0.0,0.55,0.55,30350.65,186,35.2426424,-75.5392755
24,CUYAHOGA VALLEY NP,37,"2,299,722",0.81%,OH,MW,19018.09,1321.36,0.0,20339.45,8201.58,4290.15,12491.73,32831.18,69,41.2808248,-81.56781199999998
25,GLACIER NP,39,"2,162,035",0.76%,MT,IM,1012959.58,70.28,0.0,1013029.86,2.51,289.13,291.64,1013321.5,177,48.7596128,-113.7870225
26,ASSATEAGUE ISLAND NS,40,"2,154,859",0.76%,MD-VA 2/,NE,8983.42,101.82,9842.69,18927.93,22389.33,2.78,22392.11,41320.04,101,38.0607973,-75.2362382
27,GLEN CANYON NRA,41,"2,061,328",0.73%,AZ-UT,IM,1238621.99,0.0,1141.85,1239763.84,14352.78,0.0,14352.78,1254116.62,3,37.3867256,-110.84242569999999
28,ROCK CREEK PARK,42,"2,003,385",0.71%,DC,NC,1755.21,0.0,0.0,1755.21,0.0,0.0,0.0,1755.21,50,38.937563899999994,-77.0479223
29,LAKE ROOSEVELT NRA,45,"1,781,972",0.63%,WA 1/,PW,331.31,0.0,100059.0,100390.31,0.0,0.0,0.0,100390.31,229,48.1011309,-118.24663899999999
30,SLEEPING BEAR DUNES NL,47,"1,531,560",0.54%,MI,MW,56718.81,707.07,1.85,57427.73,12067.03,1715.68,13782.71,71210.44,187,44.8734043,-86.0466574
31,CHICKASAW NRA,49,"1,487,039",0.53%,OK,IM,9695.79,9.2,189.14,9894.13,4.5,0.0,4.5,9898.63,90,34.461543299999995,-97.0064043
32,HAWAII VOLCANOES NP,50,"1,483,928",0.52%,HI,PW,323431.38,0.0,0.0,323431.38,0.0,0.0,0.0,323431.38,52,19.419369699999997,-155.2884969
33,VALLEY FORGE NHP,51,"1,442,750",0.51%,PA,NE,3145.73,29.13,0.0,3174.86,218.03,74.81,292.84,3467.7,217,40.1017506,-75.446922
34,JOSHUA TREE NP,53,"1,396,117",0.49%,CA,PW,775309.58,0.0,25.4,775334.98,2572.74,12728.02,15300.76,790635.74,154,33.873415,-115.9009923
35,BRYCE CANYON NP,54,"1,385,352",0.49%,UT,IM,35832.58,0.0,0.0,35832.58,0.0,2.5,2.5,35835.08,1,37.593037700000004,-112.1870895
36,AMISTAD NRA,55,"1,367,502",0.48%,TX,IM,57292.44,0.0,0.0,57292.44,0.0,1207.56,1207.56,58500.0,48,29.495577500000003,-100.99526850000001
37,HOT SPRINGS NP,56,"1,302,505",0.46%,AR,MW,4937.97,0.0,0.0,4937.97,345.81,265.48,611.29,5549.26,57,34.521691499999996,-93.0423545
38,SAN JUAN NHS,57,"1,279,814",0.45%,PR,SE,53.2,0.0,0.0,53.2,21.93,0.0,21.93,75.13,193,18.4686841,-66.1207495
39,SHENANDOAH NP,58,"1,210,200",0.43%,VA,NE,197442.12,798.47,0.0,198240.59,72.11,787.01,859.12,199099.71,135,38.29275579999999,-78.67958359999999
40,EVERGLADES NP,60,"1,141,906",0.40%,FL 6/,SE,1400253.48,0.0,0.0,1400253.48,0.0,285.82,285.82,1400539.3,83,25.2866155,-80.89865089999998
41,GETTYSBURG NMP,62,"1,126,577",0.40%,PA,NE,4390.85,605.65,0.01,4996.51,43.21,949.52,992.73,5989.24,25,39.813249400000004,-77.23373199999999
42,SEQUOIA NP,63,"1,106,584",0.39%,CA,PW,403892.03,15.36,0.0,403907.39,0.0,155.24,155.24,404062.63,77,36.48636679999999,-118.56575159999998
43,HALEAKALA NP,64,"1,094,668",0.39%,HI,PW,33264.47,0.0,0.0,33264.47,0.15,0.0,0.15,33264.62,89,20.7096921,-156.25351469999998
44,ARCHES NP,67,"1,070,577",0.38%,UT,IM,76545.95,0.0,0.0,76545.95,133.03,0.0,133.03,76678.98,159,38.733081,-109.5925139
45,MINUTE MAN NHP,70,"1,001,207",0.35%,MA,NE,786.68,7.47,6.78,800.93,125.53,100.35,225.88,1026.81,103,42.457997799999994,-71.32152049999998
46,CANAVERAL NS,71,"994,430",0.35%,FL,SE,17735.69,0.0,39912.0,57647.69,0.0,14.0,14.0,57661.69,164,28.789536,-80.75637540000001
47,DEATH VALLEY NP,72,"984,568",0.35%,CA-NV,PW,3324289.08,0.0,80.0,3324369.08,38863.53,9830.13,48693.66,3373062.74,126,36.5053891,-117.0794078
48,MUIR WOODS NM,74,"972,331",0.34%,CA,PW,522.98,0.0,0.0,522.98,30.57,0.0,30.57,553.55,120,37.8970199,-122.58111770000001
49,BADLANDS NP,76,"883,406",0.31%,SD,MW,110658.24,122324.0,0.0,232982.24,39.24,9734.46,9773.7,242755.94,133,43.8553804,-102.3396912
50,CABRILLO NM,78,"877,951",0.31%,CA,PW,159.94,0.0,0.0,159.94,0.0,0.0,0.0,159.94,209,32.673542600000005,-117.24251909999998
51,CURECANTI NRA,79,"862,612",0.31%,CO 1/,IM,1122.3,1.38,41971.04,43094.72,0.0,0.0,0.0,43094.72,51,38.465746100000004,-107.1666799
52,CUMBERLAND GAP NHP,82,"853,998",0.30%,KY-TN-VA,SE,24344.95,185.61,0.0,24530.56,10.06,6.21,16.27,24546.83,62,36.6039715,-83.67296999999999
53,CANYON DE CHELLY NM,84,"828,523",0.29%,AZ,IM,0.0,0.0,0.0,0.0,0.0,83840.0,83840.0,83840.0,173,36.1336111,-109.46944440000001
54,SALEM MARITIME NHS,86,"756,038",0.27%,MA,NE,8.93,0.0,0.0,8.93,0.0,0.09,0.09,9.02,78,42.521316299999995,-70.8866429
55,ROSS LAKE NRA,88,"742,200",0.26%,WA,PW,115959.59,0.0,0.0,115959.59,1609.37,5.63,1615.0,117574.59,13,48.69987329999999,-121.01983659999999
56,CASTILLO DE SAN MARCOS NM,89,"727,243",0.26%,FL,SE,19.31,0.0,0.0,19.31,0.06,0.01,0.07,19.38,166,29.89786179999999,-81.31151870000002
57,FORD'S THEATRE NHS,91,"701,542",0.25%,DC,NC,0.3,0.0,0.0,0.3,0.0,0.0,0.0,0.3,54,38.89667,-77.0256687
58,CAPITOL REEF NP,93,"673,345",0.24%,UT,IM,241234.29,0.0,0.0,241234.29,669.97,0.0,669.97,241904.26,85,38.3669703,-111.26150420000002
59,PETRIFIED FOREST NP,94,"664,857",0.24%,AZ,IM,113182.47,0.0,0.0,113182.47,35900.69,72331.43,108232.12,221414.59,18,34.909989700000004,-109.8067916
60,WHITE HOUSE,95,"656,949",0.23%,DC,NC,18.07,0.0,0.0,18.07,0.0,0.0,0.0,18.07,153,38.8976763,-77.0365298
61,SAGUARO NP,98,"634,286",0.22%,AZ,IM,87512.43,13.64,0.0,87526.07,2998.71,917.64,3916.35,91442.42,7,32.2967359,-111.166615
62,CEDAR BREAKS NM,99,"631,809",0.22%,UT,IM,6154.6,0.0,0.0,6154.6,0.0,0.0,0.0,6154.6,94,37.6359544,-112.84502479999999
63,SAN ANTONIO MISSIONS NHP,100,"614,810",0.22%,TX,IM,390.77,69.68,0.0,460.45,180.03,183.72,363.75,824.2,72,29.361157000000002,-98.478431
64,MANASSAS NBP,101,"600,354",0.21%,VA,NC,4400.58,22.33,0.0,4422.91,0.0,650.33,650.33,5073.24,15,38.8134115,-77.52216779999998
65,PICTURED ROCKS NL,104,"593,587",0.21%,MI,MW,35667.56,21.3,40.0,35728.86,13939.75,23567.22,37506.97,73235.83,14,46.56143839999999,-86.3213064
66,KINGS CANYON NP,105,"591,033",0.21%,CA,PW,461846.05,0.0,0.0,461846.05,0.0,55.15,55.15,461901.2,212,36.88785479999999,-118.55514769999999
67,SHILOH NMP,106,"587,620",0.21%,TN-MS,SE,4819.61,0.0,0.0,4819.61,81.82,1074.72,1156.54,5976.15,144,35.142936999999996,-88.34084990000001
68,PADRE ISLAND NS,107,"573,855",0.20%,TX,IM,130355.46,0.0,0.0,130355.46,78.81,0.0,78.81,130434.27,36,27.4241558,-97.2991836
69,VICKSBURG NMP,108,"573,262",0.20%,MS-LA,SE,1747.68,-0.95,0.0,1746.73,4.84,50.61,55.45,1802.18,22,32.3548532,-90.8452588
70,LOWELL NHP,111,"537,551",0.19%,MA,NE,10.62,21.04,0.0,31.66,4.46,105.17,109.63,141.29,221,42.6472093,-71.30956239999998
71,WIND CAVE NP,112,"529,083",0.19%,SD,MW,33847.08,0.0,0.0,33847.08,0.0,0.0,0.0,33847.08,145,43.6045811,-103.42134329999999
72,ANTIETAM NB,113,"510,921",0.18%,MD,NC,1991.36,751.4,0.0,2742.76,20.98,466.63,487.61,3230.37,231,39.46874520000001,-77.7387923
73,MAMMOTH CAVE NP,114,"508,054",0.18%,KY,SE,52003.24,0.0,0.0,52003.24,814.75,12.2,826.95,52830.19,28,37.18699779999999,-86.100528
74,LAKE MEREDITH NRA,115,"502,457",0.18%,TX,IM,43964.63,0.0,1013.0,44977.63,0.0,0.0,0.0,44977.63,87,35.6438165,-101.58630579999999
75,BISCAYNE NP,117,"495,613",0.18%,FL,SE,170976.68,0.0,26.13,171002.81,1587.05,381.25,1968.3,172971.11,95,25.4824229,-80.20831030000002
76,MESA VERDE NP,118,"488,860",0.17%,CO,IM,52253.29,0.0,0.0,52253.29,41.01,190.87,231.88,52485.17,68,37.2308729,-108.4618335
77,VIRGIN ISLANDS NP,119,"483,341",0.17%,VI,SE,13026.41,3.0,0.0,13029.41,133.48,1787.76,1921.24,14950.65,113,18.3424047,-64.74857589999999
78,FIRE ISLAND NS,120,"483,334",0.17%,NY,NE,3090.44,3151.51,0.0,6241.95,12422.73,915.74,13338.47,19580.42,115,40.6553691,-73.10343069999998
79,CAPE LOOKOUT NS,121,"480,294",0.17%,NC,SE,13915.7,11243.4,14.52,25173.62,3048.16,21.58,3069.74,28243.36,106,34.6227474,-76.52462070000001
80,WRIGHT BROTHERS NMEM,122,"466,816",0.17%,NC,SE,421.81,0.0,0.0,421.81,6.63,0.0,6.63,428.44,214,36.017318700000004,-75.6692094
81,MONTEZUMA CASTLE NM,123,"455,305",0.16%,AZ,IM,842.44,0.0,0.0,842.44,0.0,16.83,16.83,859.27,12,34.6115755,-111.83498540000001
82,COLORADO NM,124,"454,510",0.16%,CO,IM,20533.93,0.0,0.0,20533.93,0.0,2.46,2.46,20536.39,93,39.0575219,-108.6938999
83,CANYONLANDS NP,126,"452,952",0.16%,UT,IM,337269.4,301.03,0.0,337570.43,27.4,0.0,27.4,337597.83,185,38.3268693,-109.87825919999999
84,WHITE SANDS NM,127,"447,385",0.16%,NM,IM,141209.24,0.0,2524.01,143733.25,0.0,0.0,0.0,143733.25,140,32.3823687,-106.49065259999999
85,CRATER LAKE NP,128,"447,251",0.16%,OR,PW,183223.77,0.0,0.0,183223.77,0.0,0.28,0.28,183224.05,112,42.868441100000005,-122.16847849999999
86,DE SOTO NMEM,130,"432,981",0.15%,FL,SE,24.78,0.0,0.0,24.78,0.0,5.22,5.22,30.0,37,27.5222794,-82.6445936
87,VANDERBILT MANSION NHS,132,"423,107",0.15%,NY,NE,211.65,0.0,0.0,211.65,0.0,0.0,0.0,211.65,9,41.7963461,-73.9423869
88,DEVILS TOWER NM,134,"416,994",0.15%,WY,IM,1346.91,0.0,0.0,1346.91,0.0,0.0,0.0,1346.91,117,44.5902098,-104.7146168
89,LASSEN VOLCANIC NP,135,"407,653",0.14%,CA,PW,106448.11,0.0,0.0,106448.11,0.0,4.22,4.22,106452.33,2,40.497659999999996,-121.42065520000001
90,CARLSBAD CAVERNS NP,139,"381,058",0.13%,NM,IM,46427.26,0.0,0.0,46427.26,0.0,339.19,339.19,46766.45,73,32.1478553,-104.5567138
91,REDWOOD NP,142,"352,517",0.12%,CA,PW,77459.63,29.36,317.51,77806.5,61086.14,151.22,61237.36,139043.86,8,41.213178799999994,-124.00462749999998
92,GOVERNORS ISLAND NM,143,"348,249",0.12%,NY,NE,22.27,0.01,0.0,22.28,0.0,0.5,0.5,22.78,27,40.691987899999994,-74.01599499999998
93,ADAMS NHP,145,"336,031",0.12%,MA,NE,9.17,0.0,0.0,9.17,4.0,10.65,14.65,23.82,230,42.25235319999999,-71.00398220000001
94,DINOSAUR NM,150,"302,858",0.11%,CO-UT,IM,203031.38,2654.16,0.0,205685.54,50.96,4546.81,4597.77,210283.31,59,40.4927109,-108.9416357
95,LINCOLN HOME NHS,151,"295,464",0.10%,IL,MW,12.03,0.0,0.0,12.03,0.0,0.21,0.21,12.24,92,39.7973533,-89.64492539999998
96,MORRISTOWN NHP,152,"294,606",0.10%,NJ,NE,1704.74,0.95,0.0,1705.69,0.0,5.03,5.03,1710.72,111,40.7648452,-74.53168070000001
97,BIG BEND NP,153,"292,055",0.10%,TX,IM,775273.38,0.0,0.0,775273.38,2606.87,23282.96,25889.83,801163.21,102,29.1274869,-103.2425379
98,KENAI FJORDS NP,157,"281,279",0.10%,AK,A,602900.86,0.0,0.0,602900.86,19302.0,47780.79,67082.79,669983.65,129,59.69222219999999,-150.6155555
99,HARPERS FERRY NHP,162,"263,105",0.09%,MD-VA-WV,NC,3151.77,53.67,338.97,3544.41,60.32,65.68,126.0,3670.41,107,39.3228225,-77.72920719999998
100,SAN JUAN ISLAND NHP,164,"261,139",0.09%,WA,PW,2045.45,0.0,0.0,2045.45,26.54,74.02,100.56,2146.01,169,48.4550358,-122.97730659999999
101,STONES RIVER NB,165,"260,537",0.09%,TN,SE,647.21,0.0,0.0,647.21,13.07,49.19,62.26,709.47,205,35.8731131,-86.43468999999997
102,WAR IN THE PACIFIC NHP,166,"255,923",0.09%,GUAM,PW,957.52,0.0,0.0,957.52,871.67,207.79,1079.46,2036.98,58,13.4737049,144.7090803
103,CHANNEL ISLANDS NP,169,"249,594",0.09%,CA,PW,69425.66,0.0,9592.96,79018.62,124554.15,45988.23,170542.38,249561.0,88,33.996073700000004,-119.7691632
104,BIGHORN CANYON NRA,170,"245,831",0.09%,MT-WY,IM,47986.04,889.89,19614.94,68490.87,1392.29,50413.06,51805.35,120296.22,61,45.3109005,-107.9359118
105,NEZ PERCE NHP,171,"233,093",0.08%,MT-ID-OR-WA,PW,2008.18,1845.33,5.12,3858.63,261.2,445.1,706.3,4564.93,139,46.4475305,-116.8227368
106,COWPENS NB,172,"231,973",0.08%,SC,SE,790.9,0.0,0.0,790.9,46.63,4.03,50.66,841.56,74,35.1367361,-81.8181625
107,SAINT CROIX NSR,174,"221,028",0.08%,MN-WI,MW,20264.13,11188.25,804.44,32256.82,30679.45,4533.47,35212.92,67469.74,175,45.416208700000006,-92.6467858
108,VOYAGEURS NP,175,"214,841",0.08%,MN,MW,133047.14,0.0,139.03,133186.17,83903.18,1110.8,85013.98,218200.15,125,48.4840955,-92.8270873
109,WUPATKI NM,178,"201,365",0.07%,AZ,IM,35401.73,20.4,0.0,35422.13,0.0,0.0,0.0,35422.13,152,35.5584745,-111.375095
110,SITKA NHP,181,"195,157",0.07%,AK,A,61.97,49.53,0.0,111.5,0.57,0.06,0.63,112.13,218,57.0489056,-135.3159583
111,PETERSBURG NB,184,"188,426",0.07%,VA,NE,2656.14,0.12,1.17,2657.43,0.0,82.29,82.29,2739.72,118,37.2438545,-77.3568983
112,NATCHEZ NHP,186,"184,551",0.07%,MS,SE,85.98,0.0,0.0,85.98,5.02,17.3,22.32,108.3,194,31.559982,-91.405937
113,LAVA BEDS NM,187,"181,429",0.06%,CA,PW,46674.49,0.0,17.93,46692.42,0.0,0.0,0.0,46692.42,196,41.758837,-121.52666409999998
114,NEW ORLEANS JAZZ NHP,188,"177,909",0.06%,LA,SE,0.0,0.0,0.0,0.0,5.13,0.0,5.13,5.13,104,29.958455800000003,-90.06078959999998
115,FEDERAL HALL NMEM,193,"167,146",0.06%,NY,NE,0.45,0.0,0.0,0.45,0.0,0.0,0.0,0.45,216,40.7073993,-74.0102088
116,APOSTLE ISLANDS NL,194,"163,419",0.06%,WI,MW,42160.65,0.0,0.0,42160.65,27211.24,0.0,27211.24,69371.89,213,46.9302046,-90.6333321
117,ORGAN PIPE CACTUS NM,195,"161,743",0.06%,AZ,IM,329114.5,24.42,226.37,329365.29,1280.0,43.57,1323.57,330688.86,223,32.087759600000005,-112.90588020000001
118,RICHMOND NBP,197,"156,952",0.06%,VA,NE,2228.55,2.56,0.0,2231.11,2.48,4721.98,4724.46,6955.57,219,37.535554,-77.44578100000001
119,BANDELIER NM,199,"150,289",0.05%,NM,IM,32831.44,0.0,0.0,32831.44,0.0,845.23,845.23,33676.67,40,35.7646658,-106.3228338
120,GREENBELT PARK,202,"145,552",0.05%,MD,NC,1105.79,0.0,0.0,1105.79,58.3,11.33,69.63,1175.42,182,38.983031,-76.90114270000001
121,LINCOLN BOYHOOD NMEM,209,"133,550",0.05%,IN,MW,180.81,0.0,0.0,180.81,10.94,7.9,18.84,199.65,195,38.11391629999999,-86.99694140000001
122,PEA RIDGE NMP,210,"131,907",0.05%,AR,MW,4278.75,0.0,0.0,4278.75,21.6,0.0,21.6,4300.35,190,36.443765500000005,-94.025807
123,HERBERT HOOVER NHS,211,"128,812",0.05%,IA,MW,181.11,0.0,0.0,181.11,4.59,1.1,5.69,186.8,134,41.6689744,-91.3477571
124,CHRISTIANSTED NHS,212,"126,962",0.04%,VI,SE,26.24,0.0,0.0,26.24,0.91,0.0,0.91,27.15,98,17.7471645,-64.7021636
125,PISCATAWAY PARK,214,"124,107",0.04%,MD,NC,1772.85,2817.72,0.0,4590.57,0.0,35.8,35.8,4626.37,16,38.690893,-77.070737
126,JOHNSTOWN FLOOD NMEM,215,"123,081",0.04%,PA,NE,167.77,1.24,0.0,169.01,5.55,3.2,8.75,177.76,220,40.328007899999996,-78.92043840000001
127,ANDERSONVILLE NHS,216,"122,883",0.04%,GA,SE,499.88,1.0,0.0,500.88,7.89,5.84,13.73,514.61,124,32.2002948,-84.1303207
128,SCOTTS BLUFF NM,217,"122,515",0.04%,NE,MW,2951.23,0.27,0.0,2951.5,5.95,47.36,53.31,3004.81,121,41.8391527,-103.7115457
129,PETROGLYPH NM,219,"119,444",0.04%,NM,IM,2933.9,0.0,190.89,3124.79,3972.39,111.98,4084.37,7209.16,215,35.13678170000001,-106.7405057
130,TIMPANOGOS CAVE NM,220,"118,764",0.04%,UT,IM,250.0,0.0,0.0,250.0,0.0,0.0,0.0,250.0,191,40.4405549,-111.7094462
131,GAULEY RIVER NRA,221,"115,283",0.04%,WV,NE,4421.72,61.18,43.36,4526.26,989.83,6043.56,7033.39,11559.65,24,38.208965500000005,-81.01473
132,EL MALPAIS NM,222,"114,678",0.04%,NM,IM,109946.76,0.0,0.0,109946.76,402.37,3964.74,4367.11,114313.87,208,34.9002575,-107.9942365
133,WALNUT CANYON NM,224,"110,748",0.04%,AZ,IM,3251.42,0.0,0.0,3251.42,0.0,277.84,277.84,3529.26,110,35.1717266,-111.50927539999999
134,CONGAREE NP,225,"109,685",0.04%,SC,SE,26020.66,0.0,0.0,26020.66,0.0,525.55,525.55,26546.21,119,33.794800099999996,-80.78209620000001
135,JEWEL CAVE NM,226,"109,300",0.04%,SD,MW,1273.51,0.0,0.0,1273.51,0.0,0.0,0.0,1273.51,34,43.7303594,-103.8290512
136,STEAMTOWN NHS,228,"106,309",0.04%,PA,NE,51.29,0.0,0.0,51.29,10.55,0.64,11.19,62.48,4,41.40790579999999,-75.6720114
137,CHAMIZAL NMEM,229,"104,148",0.04%,TX,IM,54.9,0.0,0.0,54.9,0.0,0.0,0.0,54.9,132,31.767143800000003,-106.4542166
138,CORONADO NMEM,232,"97,579",0.03%,AZ,IM,4827.19,0.0,1.03,4828.22,0.0,2.0,2.0,4830.22,222,31.3458652,-110.25377549999999
139,TUZIGOOT NM,233,"97,388",0.03%,AZ,IM,366.42,15.11,0.0,381.53,0.0,430.36,430.36,811.89,109,34.768777899999996,-112.0268895
140,GREAT BASIN NP,234,"94,850",0.03%,NV,PW,77180.0,0.0,0.0,77180.0,0.0,0.0,0.0,77180.0,44,38.98333299999999,-114.3
141,CARL SANDBURG HOME NHS,235,"93,429",0.03%,NC,SE,263.52,0.0,0.0,263.52,0.0,0.13,0.13,263.65,142,35.2714108,-82.44724709999998
142,GRAND PORTAGE NM,236,"93,156",0.03%,MN,MW,709.97,0.0,0.0,709.97,0.0,0.0,0.0,709.97,31,47.9607126,-89.68658609999999
143,GENERAL GRANT NMEM,237,"92,418",0.03%,NY,NE,0.76,0.0,0.0,0.76,0.0,0.0,0.0,0.76,204,40.8134045,-73.9630671
144,NATURAL BRIDGES NM,238,"89,011",0.03%,UT,IM,7620.49,16.0,0.0,7636.49,0.0,0.0,0.0,7636.49,17,37.604056,-110.0052043
145,DEVILS POSTPILE NM,239,"87,845",0.03%,CA,PW,798.46,0.0,0.0,798.46,0.0,0.0,0.0,798.46,66,37.625106200000005,-119.0849506
146,MOORES CREEK NB,242,"79,345",0.03%,NC,SE,85.35,2.4,0.0,87.75,0.0,0.0,0.0,87.75,55,34.457789700000006,-78.109585
147,EFFIGY MOUNDS NM,243,"78,540",0.03%,IA,MW,2526.39,0.0,0.0,2526.39,0.0,0.0,0.0,2526.39,116,43.089214,-91.20064190000001
148,AFRICAN BURIAL GROUND NM,245,"77,624",0.03%,NY,NE,0.35,0.0,0.0,0.35,0.0,0.0,0.0,0.35,202,40.7145049,-74.0043973
149,PIPESTONE NM,246,"76,030",0.03%,MN,MW,281.78,0.0,0.0,281.78,0.0,0.0,0.0,281.78,197,44.01364909999999,-96.3247472
150,MINUTEMAN MISSILE NHS,247,"75,654",0.03%,SD,MW,10.57,0.78,0.0,11.35,0.0,3.65,3.65,15.0,43,43.844547,-101.9011854
151,RAINBOW BRIDGE NM,248,"75,214",0.03%,UT,IM,160.0,0.0,0.0,160.0,0.0,0.0,0.0,160.0,65,37.0774203,-110.964382
152,NINETY SIX NHS,250,"73,044",0.03%,SC,SE,1021.94,0.0,0.0,1021.94,0.0,0.0,0.0,1021.94,162,34.146721899999996,-82.0235684
153,MANZANAR NHS,251,"72,831",0.03%,CA,PW,813.81,0.0,0.0,813.81,0.0,0.0,0.0,813.81,30,36.72722879999999,-118.1527894
154,JIMMY CARTER NHS,252,"69,940",0.02%,GA,SE,36.81,8.81,1.92,47.54,0.0,24.67,24.67,72.21,60,32.0365107,-84.3925979
155,CASA GRANDE RUINS NM,253,"68,631",0.02%,AZ,IM,472.5,0.0,0.0,472.5,0.0,0.0,0.0,472.5,181,32.995458899999996,-111.53552820000002
156,FLORISSANT FOSSIL BEDS NM,257,"62,637",0.02%,CO,IM,5992.32,0.0,0.0,5992.32,5.77,0.0,5.77,5998.09,114,38.9136173,-105.28540759999998
157,CUMBERLAND ISLAND NS,258,"61,493",0.02%,GA,SE,18866.37,1.63,656.92,19524.92,13820.15,3001.76,16821.91,36346.83,38,30.8659411,-81.45052940000001
158,WHITMAN MISSION NHS,259,"60,785",0.02%,WA,PW,138.53,0.0,0.0,138.53,0.0,0.0,0.0,138.53,79,46.04132509999999,-118.46391770000001
159,DRY TORTUGAS NP,260,"60,550",0.02%,FL,SE,61481.22,0.0,0.0,61481.22,3220.0,0.0,3220.0,64701.22,76,24.628477,-82.87318739999998
160,KALAUPAPA NHP,262,"58,875",0.02%,HI,PW,22.88,0.0,0.0,22.88,10684.0,72.0,10756.0,10778.88,26,21.1924062,-156.9665093
161,HORSESHOE BEND NMP,263,"58,668",0.02%,AL,SE,2040.0,0.0,0.0,2040.0,0.0,0.0,0.0,2040.0,105,32.97832229999999,-85.73100759999998
162,NAVAJO NM,264,"58,219",0.02%,AZ,IM,360.0,0.0,0.0,360.0,0.0,0.0,0.0,360.0,42,35.900012100000005,-109.0339832
163,SARATOGA NHP,265,"57,688",0.02%,NY,NE,2908.96,2.04,0.0,2911.0,68.94,414.26,483.2,3394.2,180,43.01230820000001,-73.6488883
164,ELEANOR ROOSEVELT NHS,267,"55,049",0.02%,NY,NE,180.5,0.0,0.0,180.5,0.0,0.0,0.0,180.5,99,41.763138899999994,-73.89909759999998
165,PIPE SPRING NM,268,"54,692",0.02%,AZ,IM,40.0,0.0,0.0,40.0,0.0,0.0,0.0,40.0,158,36.862891299999994,-112.7397318
166,FREDERICK DOUGLASS NHS,269,"53,314",0.02%,DC,NC,8.57,0.0,0.0,8.57,0.0,0.0,0.0,8.57,123,38.8632895,-76.9851973
167,EISENHOWER NHS,270,"53,286",0.02%,PA,NE,687.37,3.09,0.0,690.46,0.0,0.0,0.0,690.46,192,39.79391079999999,-77.26331590000001
168,HOPEWELL FURNACE NHS,271,"52,870",0.02%,PA,NE,848.06,0.0,0.0,848.06,0.0,0.0,0.0,848.06,156,40.209726700000004,-75.7691263
169,THOMAS EDISON NHP,272,"52,554",0.02%,NJ,NE,21.25,0.0,0.0,21.25,0.0,0.0,0.0,21.25,189,40.783997799999995,-74.2340291
170,ROGER WILLIAMS NMEM,274,"51,944",0.02%,RI,NE,4.56,0.0,0.0,4.56,0.0,0.0,0.0,4.56,224,41.831331799999994,-71.41074029999999
171,TONTO NM,275,"51,881",0.02%,AZ,IM,1120.0,0.0,0.0,1120.0,0.0,0.0,0.0,1120.0,56,33.6452781,-111.1126846
172,ANDREW JOHNSON NHS,276,"51,261",0.02%,TN,SE,16.68,0.0,0.0,16.68,0.0,0.0,0.0,16.68,86,36.1627802,-82.8294485
173,RIVER RAISIN NBP,277,"50,667",0.02%,MI,MW,42.18,0.0,0.0,42.18,0.0,0.0,0.0,42.18,35,41.9112005,-83.37672649999998
174,CAPULIN VOLCANO NM,278,"48,710",0.02%,NM,IM,792.84,0.0,0.0,792.84,0.0,0.0,0.0,792.84,146,36.7810744,-103.9695127
175,MONOCACY NB,279,"47,249",0.02%,MD,NC,1354.87,195.37,0.0,1550.24,51.82,44.95,96.77,1647.01,179,39.3725838,-77.39898199999998
176,PECOS NHP,280,"45,568",0.02%,NM,IM,6358.16,33.35,0.0,6391.51,19.39,291.86,311.25,6702.76,155,35.549232399999994,-105.68844440000001
177,EL MORRO NM,281,"44,808",0.02%,NM,IM,1039.92,0.0,0.0,1039.92,0.0,238.8,238.8,1278.72,67,35.03963579999999,-108.3450813
178,AZTEC RUINS NM,282,"44,744",0.02%,NM,IM,266.78,0.0,0.0,266.78,6.78,44.84,51.62,318.4,127,36.837208600000004,-108.00009299999999
179,CHARLES PINCKNEY NHS,283,"44,314",0.02%,SC,SE,28.45,0.0,0.0,28.45,0.0,0.0,0.0,28.45,184,32.8455749,-79.82395989999998
180,CHIRICAHUA NM,285,"41,159",0.01%,AZ,IM,11132.38,0.0,850.0,11982.38,0.0,2.35,2.35,11984.73,198,32.0135714,-109.3422953
181,LAKE CHELAN NRA,286,"40,830",0.01%,WA,PW,59339.59,11.83,0.0,59351.42,2209.93,388.13,2598.06,61949.48,80,48.352344,-120.68557709999999
182,ARKANSAS POST NMEM,288,"39,703",0.01%,AR,MW,649.91,0.0,14.0,663.91,0.0,93.6,93.6,757.51,49,34.0210974,-91.34788509999998
183,HOPEWELL CULTURE NHP,289,"39,462",0.01%,OH,MW,1016.54,8.05,0.0,1024.59,0.11,740.56,740.67,1765.26,81,39.376106400000005,-83.00650970000001
184,CHACO CULTURE NHP,291,"39,044",0.01%,NM,IM,32840.14,0.0,0.0,32840.14,0.0,1120.05,1120.05,33960.19,172,36.05299979999999,-107.955924
185,HAMPTON NHS,293,"37,529",0.01%,MD,NE,62.04,0.0,0.0,62.04,0.0,0.0,0.0,62.04,183,39.416328899999996,-76.58763189999998
186,JOHN MUIR NHS,294,"37,403",0.01%,CA,PW,338.3,0.0,0.0,338.3,3.9,1.94,5.84,344.14,227,37.99216759999999,-122.13097040000001
187,BLUESTONE NSR,295,"36,842",0.01%,WV,NE,3032.0,0.0,0.0,3032.0,1236.0,41.51,1277.51,4309.51,23,37.3981898,-81.167565
188,BIG HOLE NB,298,"35,207",0.01%,MT,PW,655.61,0.0,0.0,655.61,0.0,355.0,355.0,1010.61,151,45.6413441,-113.6434203
189,TUMACACORI NHP,299,"35,158",0.01%,AZ,IM,357.74,0.0,0.0,357.74,0.64,1.94,2.58,360.32,149,31.56781969999999,-111.0510277
190,FRIENDSHIP HILL NHS,300,"34,289",0.01%,PA,NE,661.44,0.0,0.0,661.44,0.0,13.12,13.12,674.56,199,39.777614899999996,-79.9314768
191,HARRY S TRUMAN NHS,304,"31,316",0.01%,MO,MW,10.49,0.0,0.0,10.49,0.0,0.0,0.0,10.49,225,39.093754,-94.4233898
192,BUCK ISLAND REEF NM,306,"30,436",0.01%,VI,SE,880.0,0.0,18135.47,19015.47,0.0,0.0,0.0,19015.47,163,17.787094600000003,-64.62061059999999
193,WOMEN'S RIGHTS NHP,308,"29,585",0.01%,NY,NE,7.03,0.09,0.0,7.12,0.1,0.22,0.32,7.44,32,42.910773,-76.800178
194,KOBUK VALLEY NP,309,"29,550",0.01%,AK,A,1713653.28,5.0,0.0,1713658.28,966.0,36091.88,37057.88,1750716.16,0,67.33561970000001,-159.1243161
195,CANE RIVER CREOLE NHP,312,"28,310",0.01%,LA,SE,62.39,0.0,0.0,62.39,4.64,138.47,143.11,205.5,29,31.665269300000002,-93.00336379999999
196,NORTH CASCADES NP,313,"26,935",0.01%,WA,PW,504654.18,0.0,0.0,504654.18,0.0,126.76,126.76,504780.94,47,48.7718174,-121.2984648
197,HOVENWEEP NM,314,"26,710",0.01%,CO-UT,IM,784.93,0.0,0.0,784.93,0.0,0.0,0.0,784.93,122,37.383762299999994,-109.0726022
198,BENT'S OLD FORT NHS,315,"25,815",0.01%,CO,IM,735.6,0.0,0.0,735.6,7.4,55.8,63.2,798.8,200,38.0404268,-103.4295033
199,CLARA BARTON NHS,316,"25,347",0.01%,MD,NC,8.59,0.0,0.0,8.59,0.0,0.0,0.0,8.59,188,38.967247799999996,-77.14078099999998
200,CAPE KRUSENSTERN NM,318,"24,950",0.01%,AK,A,616679.04,10072.84,0.0,626751.88,353.0,22019.65,22372.65,649124.53,20,67.12805560000001,-163.74527780000003
201,TUSKEGEE INSTITUTE NHS,320,"24,030",0.01%,AL,SE,7.9,1.02,0.0,8.92,0.0,49.0,49.0,57.92,136,32.428134899999996,-85.7052446
202,TUSKEGEE AIRMEN NHS,322,"23,716",0.01%,AL,SE,44.71,0.0,0.0,44.71,0.4,44.57,44.97,89.68,108,32.4572441,-85.680363
203,MARTIN VAN BUREN NHS,324,"22,062",0.01%,NY,NE,44.53,7.64,0.0,52.17,0.24,232.52,232.76,284.93,201,42.36978250000001,-73.70417420000001
204,RUSSELL CAVE NM,327,"20,954",0.01%,AL,SE,310.45,0.0,0.0,310.45,0.0,0.0,0.0,310.45,45,34.9764537,-85.81425709999998
205,SAGAMORE HILL NHS,328,"20,097",0.01%,NY,NE,83.02,0.0,0.0,83.02,0.0,0.0,0.0,83.02,75,40.88552929999999,-73.5010296
206,EDGAR ALLAN POE NHS,330,"19,104",0.01%,PA,NE,0.52,0.0,0.0,0.52,0.0,0.0,0.0,0.52,91,39.962057,-75.14998100000001
207,GRANT-KOHRS RANCH NHS,334,"17,095",0.01%,MT,IM,1325.83,165.63,0.0,1491.46,69.47,57.45,126.92,1618.38,33,46.406069,-112.736682
208,FOSSIL BUTTE NM,335,"17,084",0.01%,WY,IM,8198.0,0.0,0.0,8198.0,0.0,0.0,0.0,8198.0,165,41.85818039999999,-110.76588670000001
209,SPRINGFIELD ARMORY NHS,336,"16,978",0.01%,MA,NE,20.32,0.28,0.0,20.6,34.33,0.0,34.33,54.93,39,42.1072695,-72.58157380000002
210,ISLE ROYALE NP,337,"16,663",0.01%,MI,MW,539281.87,0.0,0.0,539281.87,32508.24,0.0,32508.24,571790.11,148,47.9958654,-88.9092899
211,HAMILTON GRANGE NMEM,338,"16,358",0.01%,NY,NE,0.11,0.93,0.0,1.04,0.0,0.0,0.0,1.04,228,40.8213537,-73.9473103
212,AGATE FOSSIL BEDS NM,342,"11,824",0.00%,NE,MW,2270.33,459.75,0.0,2730.08,24.43,303.36,327.79,3057.87,10,42.425210299999996,-103.7342402
213,SAUGUS IRON WORKS NHS,344,"11,611",0.00%,MA,NE,8.51,0.0,0.0,8.51,0.0,0.0,0.0,8.51,84,42.4679503,-71.00812719999998
214,WASHITA BATTLEFIELD NHS,346,"10,615",0.00%,OK,IM,312.2,0.0,0.0,312.2,3.0,0.0,3.0,315.2,141,35.6199266,-99.70515470000001
215,FIRST LADIES NHS,348,"9,903",0.00%,OH,MW,0.46,0.0,0.0,0.46,0.0,0.0,0.0,0.46,203,40.797618,-81.37534099999998
216,FREDERICK LAW OLMSTED NHS,351,"8,668",0.00%,MA,NE,7.06,0.15,0.0,7.21,0.0,0.0,0.0,7.21,160,42.3254659,-71.1320319
217,THOMAS STONE NHS,355,"6,426",0.00%,MD,NE,321.97,0.0,0.0,321.97,0.0,6.28,6.28,328.25,130,38.530233,-77.0360161
218,SAND CREEK MASSACRE NHS,357,"4,384",0.00%,CO,IM,2385.43,0.0,0.0,2385.43,640.0,9557.91,10197.91,12583.34,210,38.5447972,-102.50380009999999
219,NICODEMUS NHS,358,"3,505",0.00%,KS,MW,0.22,0.0,0.0,0.22,0.0,4.37,4.37,4.59,170,39.39323419999999,-99.6147017
220,EUGENE O'NEILL NHS,360,"2,789",0.00%,CA,PW,13.19,0.0,0.0,13.19,0.0,0.0,0.0,13.19,131,37.825922600000006,-122.02727320000001
