,ParkName,Rank,Value,PercentOfTotal,State,Region,NPS Fee Acres,NPS Less Than Fee Acres,Other Federal Fee Acres,Subtotal Federal Acres,Other Public Acres,Private Acres,Subtotal Non-Federal Acres,Gross Area Acres,Unnamed: 0,latitude,longitude
0,BLUE RIDGE PKWY,1,"16,093,765",4.86%,NC-VA,NT,85529.79,2775.57,125.0,88430.36,259.58,10170.1,10429.68,98860.04,5,37.1199734,-80.12914119999998
1,GOLDEN GATE NRA,2,"14,981,897",4.53%,CA,PW,34742.93,24.55,324.97,35092.45,44382.21,2552.2,46934.41,82026.86,138,37.8480359,-122.5295263
2,GATEWAY NRA,4,"9,190,610",2.78%,NJ-NY,NE,20164.67,1.63,279.24,20445.54,5558.9,602.19,6161.09,26606.63,143,40.439669,-73.9887047
3,LINCOLN MEMORIAL,5,"7,956,117",2.40%,DC,NC,7.29,0.0,0.0,7.29,0.0,0.0,0.0,7.29,46,38.8892686,-77.05017600000001
4,LAKE MEAD NRA,6,"7,882,339",2.38%,AZ-NV,PW,1392731.19,41.31,78230.76,1471003.26,2444.75,22367.52,24812.27,1495815.53,63,36.155086299999994,-114.4559303
5,NATCHEZ TRACE PKWY,8,"6,326,062",1.91%,TN-MS-AL,SE,46320.02,5887.28,0.0,52207.3,34.54,60.16,94.7,52302.0,167,33.76686420000001,-89.01875109999999
6,GRAND CANYON NP,9,"6,254,238",1.89%,AZ,IM,1180650.85,0.0,0.0,1180650.85,11860.0,9136.18,20996.18,1201647.03,71,36.1069652,-112.11299720000001
7,VIETNAM VETERANS MEM,10,"5,072,589",1.53%,DC,NC,2.18,0.0,0.0,2.18,0.0,0.0,0.0,2.18,64,38.891293299999994,-77.04771319999998
8,INDEPENDENCE NHP,13,"4,790,758",1.45%,PA,NE,33.27,0.6,0.02,33.89,4.95,6.03,10.98,44.87,174,39.9495312,-75.14973189999998
9,CASTLE CLINTON NM,14,"4,737,113",1.43%,NY,NE,1.0,0.0,0.0,1.0,0.0,0.0,0.0,1.0,11,40.7034401,-74.0168023
10,GLEN CANYON NRA,15,"4,574,940",1.38%,AZ-UT,IM,1238621.99,0.0,1141.85,1239763.84,14352.78,0.0,14352.78,1254116.62,3,37.3867256,-110.84242569999999
11,ZION NP,16,"4,504,812",1.36%,UT,IM,143747.65,0.0,0.0,143747.65,5.13,3484.24,3489.37,147237.02,128,37.298202200000006,-113.02630049999999
12,STATUE OF LIBERTY NM,18,"4,441,988",1.34%,NY-NJ,NE,58.38,0.0,0.0,58.38,0.0,0.0,0.0,58.38,168,40.6892494,-74.04450039999998
13,YOSEMITE NP,20,"4,336,890",1.31%,CA,PW,759690.11,10.83,319.11,760020.05,1502.7,224.75,1727.45,761747.5,70,37.8651011,-119.5383294
14,CAPE COD NS,22,"4,125,418",1.25%,MA,NE,27111.29,403.64,31.86,27546.79,14556.22,1505.27,16061.49,43608.28,211,41.904347200000004,-69.9789243
15,YELLOWSTONE NP,23,"4,116,524",1.24%,ID-MT-WY,IM,2219789.13,0.0,0.0,2219789.13,0.0,1.58,1.58,2219790.71,206,44.427963,-110.58845500000001
16,GULF ISLANDS NS,24,"3,952,941",1.19%,FL-MS,SE,95223.93,2.09,4553.25,99779.27,37807.56,718.69,38526.25,138305.52,178,30.391851399999997,-88.791067
17,ACADIA NP,26,"3,509,271",1.06%,ME,NE,37433.41,10707.9,24.27,48165.58,48.22,861.46,909.68,49075.26,21,44.3385559,-68.27333459999998
18,BOSTON NHP,28,"3,425,606",1.04%,MA,NE,37.96,0.0,0.0,37.96,5.09,0.77,5.86,43.82,176,42.373162,-71.056834
19,OLYMPIC NP,29,"3,401,996",1.03%,WA,PW,913388.24,64.88,100.0,913553.12,8749.28,347.01,9096.29,922649.41,97,47.8021067,-123.6043524
20,THOMAS JEFFERSON MEM,31,"3,366,571",1.02%,DC,NC,18.36,0.0,0.0,18.36,0.0,0.0,0.0,18.36,161,38.88138060000001,-77.0364536
21,COLONIAL NHP,32,"3,333,448",1.01%,VA,NE,8048.82,556.47,0.0,8605.29,68.83,2.79,71.62,8676.91,41,37.229133700000006,-76.50390329999998
22,GRAND TETON NP,33,"3,317,000",1.00%,WY,IM,273477.58,8.85,34984.62,308471.05,653.34,919.83,1573.17,310044.22,6,43.7904282,-110.68176270000001
23,GLACIER NP,34,"3,305,512",1.00%,MT,IM,1012842.8,54.34,0.0,1012897.14,2.51,226.34,228.85,1013125.99,177,48.7596128,-113.7870225
24,JOSHUA TREE NP,35,"2,853,619",0.86%,CA,PW,779163.11,0.0,25.4,779188.51,2572.74,8874.49,11447.23,790635.74,154,33.873415,-115.9009923
25,BRYCE CANYON NP,38,"2,571,684",0.78%,UT,IM,35832.58,0.0,0.0,35832.58,0.0,2.5,2.5,35835.08,1,37.593037700000004,-112.1870895
26,ROCK CREEK PARK,39,"2,483,788",0.75%,DC,NC,1755.21,0.0,0.0,1755.21,0.0,0.0,0.0,1755.21,50,38.937563899999994,-77.0479223
27,POINT REYES NS,40,"2,456,669",0.74%,CA,PW,64856.5,42.98,334.87,65234.35,2696.98,3122.05,5819.03,71053.38,157,38.0722909,-122.881743
28,CAPE HATTERAS NS,42,"2,433,703",0.74%,NC,SE,24470.1,0.0,5880.0,30350.1,0.0,0.55,0.55,30350.65,186,35.2426424,-75.5392755
29,ASSATEAGUE ISLAND NS,43,"2,347,167",0.71%,MD-VA 2/,NE,8983.42,102.16,9842.69,18928.27,22389.33,28.9,22418.23,41346.5,101,38.0607973,-75.2362382
30,CUYAHOGA VALLEY NP,44,"2,226,879",0.67%,OH,MW,19057.53,1453.68,0.0,20511.21,8457.09,3603.94,12061.03,32572.24,69,41.2808248,-81.56781199999998
31,VALLEY FORGE NHP,45,"2,159,592",0.65%,PA,NE,3145.73,29.13,0.0,3174.86,218.03,74.81,292.84,3467.7,217,40.1017506,-75.446922
32,HAWAII VOLCANOES NP,47,"2,016,702",0.61%,HI,PW,323431.38,0.0,0.0,323431.38,0.0,0.0,0.0,323431.38,52,19.419369699999997,-155.2884969
33,SLEEPING BEAR DUNES NL,50,"1,678,126",0.51%,MI,MW,57113.34,661.99,1.85,57777.18,12067.29,1406.59,13473.88,71251.06,187,44.8734043,-86.0466574
34,CANAVERAL NS,51,"1,598,586",0.48%,FL,SE,17735.69,0.0,39912.0,57647.69,0.0,14.0,14.0,57661.69,164,28.789536,-80.75637540000001
35,HOT SPRINGS NP,52,"1,561,616",0.47%,AR,MW,4998.1,0.0,0.0,4998.1,333.89,216.02,549.91,5548.01,57,34.521691499999996,-93.0423545
36,ARCHES NP,53,"1,539,028",0.47%,UT,IM,76545.95,0.0,0.0,76545.95,133.03,0.0,133.03,76678.98,159,38.733081,-109.5925139
37,CHICKASAW NRA,54,"1,533,684",0.46%,OK,IM,9695.79,9.2,189.14,9894.13,4.5,0.0,4.5,9898.63,90,34.461543299999995,-97.0064043
38,SHENANDOAH NP,58,"1,458,874",0.44%,VA,NE,197536.49,818.31,0.0,198354.8,72.11,790.86,862.97,199217.77,135,38.29275579999999,-78.67958359999999
39,SAN ANTONIO MISSIONS NHP,62,"1,381,383",0.42%,TX,IM,476.15,69.68,0.0,545.83,259.22,142.72,401.94,947.77,72,29.361157000000002,-98.478431
40,LAKE MEREDITH NRA,64,"1,329,076",0.40%,TX,IM,43964.51,0.0,1013.0,44977.51,0.0,0.12,0.12,44977.63,87,35.6438165,-101.58630579999999
41,LAKE ROOSEVELT NRA,65,"1,304,403",0.39%,WA 1/,PW,331.31,0.0,100059.0,100390.31,0.0,0.0,0.0,100390.31,229,48.1011309,-118.24663899999999
42,DEATH VALLEY NP,66,"1,294,827",0.39%,CA-NV,PW,3320765.33,0.0,393.99,3321159.32,42187.93,9715.89,51903.82,3373063.14,126,36.5053891,-117.0794078
43,SEQUOIA NP,67,"1,291,256",0.39%,CA,PW,403893.31,15.36,0.0,403908.67,0.0,153.96,153.96,404062.63,77,36.48636679999999,-118.56575159999998
44,AMISTAD NRA,68,"1,221,635",0.37%,TX,IM,57292.44,0.0,0.0,57292.44,0.0,1207.56,1207.56,58500.0,48,29.495577500000003,-100.99526850000001
45,SAN JUAN NHS,70,"1,188,780",0.36%,PR,SE,53.2,0.0,0.0,53.2,21.93,0.0,21.93,75.13,193,18.4686841,-66.1207495
46,CAPITOL REEF NP,73,"1,150,165",0.35%,UT,IM,241223.33,0.0,0.0,241223.33,681.17,0.0,681.17,241904.5,85,38.3669703,-111.26150420000002
47,HALEAKALA NP,74,"1,112,390",0.34%,HI,PW,33264.47,0.0,0.0,33264.47,0.15,0.0,0.15,33264.62,89,20.7096921,-156.25351469999998
48,MUIR WOODS NM,76,"1,062,099",0.32%,CA,PW,522.98,0.0,0.0,522.98,30.57,0.0,30.57,553.55,120,37.8970199,-122.58111770000001
49,BADLANDS NP,77,"1,054,325",0.32%,SD,MW,111487.63,122321.5,0.0,233809.13,39.24,8907.57,8946.81,242755.94,133,43.8553804,-102.3396912
50,CURECANTI NRA,78,"1,041,446",0.31%,CO 1/,IM,1122.3,1.38,42456.04,43579.72,10.84,0.0,10.84,43590.56,51,38.465746100000004,-107.1666799
51,GETTYSBURG NMP,79,"1,038,649",0.31%,PA,NE,4572.8,590.81,0.01,5163.62,5.28,863.64,868.92,6032.54,25,39.813249400000004,-77.23373199999999
52,MINUTE MAN NHP,80,"1,023,921",0.31%,MA,NE,787.69,7.47,6.78,801.94,125.53,100.29,225.82,1027.76,103,42.457997799999994,-71.32152049999998
53,EVERGLADES NP,81,"1,018,557",0.31%,FL 6/,SE,1400253.48,0.0,0.0,1400253.48,0.0,285.82,285.82,1400539.3,83,25.2866155,-80.89865089999998
54,CABRILLO NM,82,"997,903",0.30%,CA,PW,159.94,0.0,0.0,159.94,0.0,0.0,0.0,159.94,209,32.673542600000005,-117.24251909999998
55,SAGUARO NP,84,"964,760",0.29%,AZ,IM,87908.7,13.64,0.0,87922.34,3009.67,783.71,3793.38,91715.72,7,32.2967359,-111.166615
56,CEDAR BREAKS NM,87,"909,199",0.27%,UT,IM,6154.6,0.0,0.0,6154.6,0.0,0.0,0.0,6154.6,94,37.6359544,-112.84502479999999
57,CASTILLO DE SAN MARCOS NM,91,"876,975",0.27%,FL,SE,19.31,0.0,0.0,19.31,0.06,0.01,0.07,19.38,166,29.89786179999999,-81.31151870000002
58,CANYON DE CHELLY NM,93,"825,660",0.25%,AZ,IM,0.0,0.0,0.0,0.0,0.0,83840.0,83840.0,83840.0,173,36.1336111,-109.46944440000001
59,PICTURED ROCKS NL,94,"781,190",0.24%,MI,MW,35705.86,21.3,44.16,35771.32,13939.75,23524.76,37464.51,73235.83,14,46.56143839999999,-86.3213064
60,SAINT CROIX NSR,95,"772,475",0.23%,MN-WI,MW,20355.16,11057.45,804.44,32217.05,30716.34,4533.24,35249.58,67466.63,175,45.416208700000006,-92.6467858
61,ROSS LAKE NRA,97,"759,656",0.23%,WA,PW,115959.59,0.0,0.0,115959.59,1609.37,5.63,1615.0,117574.59,13,48.69987329999999,-121.01983659999999
62,FORD'S THEATRE NHS,98,"744,266",0.22%,DC,NC,0.3,0.0,0.0,0.3,0.0,0.0,0.0,0.3,54,38.89667,-77.0256687
63,CANYONLANDS NP,99,"742,271",0.22%,UT,IM,337269.4,301.03,0.0,337570.43,27.4,0.0,27.4,337597.83,185,38.3268693,-109.87825919999999
64,CUMBERLAND GAP NHP,100,"737,547",0.22%,KY-TN-VA,SE,24344.95,185.61,0.0,24530.56,10.06,6.21,16.27,24546.83,62,36.6039715,-83.67296999999999
65,CRATER LAKE NP,103,"711,749",0.22%,OR,PW,183223.77,0.0,0.0,183223.77,0.0,0.28,0.28,183224.05,112,42.868441100000005,-122.16847849999999
66,KINGS CANYON NP,105,"692,932",0.21%,CA,PW,461846.05,0.0,0.0,461846.05,0.0,55.15,55.15,461901.2,212,36.88785479999999,-118.55514769999999
67,PADRE ISLAND NS,106,"650,197",0.20%,TX,IM,130355.46,0.0,0.0,130355.46,78.81,0.0,78.81,130434.27,36,27.4241558,-97.2991836
68,PETRIFIED FOREST NP,108,"627,757",0.19%,AZ,IM,147024.45,0.0,0.0,147024.45,35900.69,38465.07,74365.76,221390.21,18,34.909989700000004,-109.8067916
69,GOVERNORS ISLAND NM,109,"625,653",0.19%,NY,NE,22.4,0.01,0.0,22.41,0.0,0.5,0.5,22.91,27,40.691987899999994,-74.01599499999998
70,WIND CAVE NP,110,"619,924",0.19%,SD,MW,33970.84,0.0,0.0,33970.84,0.0,0.0,0.0,33970.84,145,43.6045811,-103.42134329999999
71,MESA VERDE NP,111,"613,788",0.19%,CO,IM,52253.29,0.0,0.0,52253.29,41.01,190.87,231.88,52485.17,68,37.2308729,-108.4618335
72,WHITE SANDS NM,112,"612,468",0.19%,NM,IM,142653.49,0.0,1050.06,143703.55,0.0,0.0,0.0,143703.55,140,32.3823687,-106.49065259999999
73,MANASSAS NBP,113,"605,577",0.18%,VA,NC,4400.73,21.52,0.0,4422.25,0.0,650.38,650.38,5072.63,15,38.8134115,-77.52216779999998
74,MAMMOTH CAVE NP,115,"587,853",0.18%,KY,SE,52003.24,0.0,0.0,52003.24,814.75,1193.92,2008.67,54011.91,28,37.18699779999999,-86.100528
75,LOWELL NHP,118,"562,498",0.17%,MA,NE,10.62,21.04,0.0,31.66,5.38,104.63,110.01,141.67,221,42.6472093,-71.30956239999998
76,CARLSBAD CAVERNS NP,120,"520,026",0.16%,NM,IM,46427.26,0.0,0.0,46427.26,0.0,339.19,339.19,46766.45,73,32.1478553,-104.5567138
77,LASSEN VOLCANIC NP,121,"507,256",0.15%,CA,PW,106504.8,0.0,0.0,106504.8,0.0,84.22,84.22,106589.02,2,40.497659999999996,-121.42065520000001
78,DEVILS TOWER NM,123,"499,031",0.15%,WY,IM,1346.91,0.0,0.0,1346.91,0.0,0.3,0.3,1347.21,117,44.5902098,-104.7146168
79,VICKSBURG NMP,125,"475,074",0.14%,MS-LA,SE,1760.05,-0.95,0.0,1759.1,4.84,50.61,55.45,1814.55,22,32.3548532,-90.8452588
80,FIRE ISLAND NS,127,"456,392",0.14%,NY,NE,3090.44,3151.51,0.0,6241.95,12422.73,915.74,13338.47,19580.42,115,40.6553691,-73.10343069999998
81,BISCAYNE NP,128,"446,961",0.14%,FL,SE,171028.91,0.0,18.45,171047.36,1563.9,359.85,1923.75,172971.11,95,25.4824229,-80.20831030000002
82,REDWOOD NP,129,"445,000",0.13%,CA,PW,77715.18,29.36,1.92,77746.46,61101.92,150.99,61252.91,138999.37,8,41.213178799999994,-124.00462749999998
83,BIG BEND NP,130,"440,276",0.13%,TX,IM,775273.38,0.0,0.0,775273.38,2606.87,23282.96,25889.83,801163.21,102,29.1274869,-103.2425379
84,WHITE HOUSE,131,"439,725",0.13%,DC,NC,18.07,0.0,0.0,18.07,0.0,0.0,0.0,18.07,153,38.8976763,-77.0365298
85,SHILOH NMP,133,"435,107",0.13%,TN-MS,SE,5364.74,1.19,0.0,5365.93,958.76,1607.43,2566.19,7932.12,144,35.142936999999996,-88.34084990000001
86,WRIGHT BROTHERS NMEM,135,"414,244",0.13%,NC,SE,421.81,0.0,0.0,421.81,6.63,0.0,6.63,428.44,214,36.017318700000004,-75.6692094
87,CAPE LOOKOUT NS,137,"399,357",0.12%,NC,SE,13915.7,11243.4,14.52,25173.62,3048.16,21.58,3069.74,28243.36,106,34.6227474,-76.52462070000001
88,MONTEZUMA CASTLE NM,138,"398,174",0.12%,AZ,IM,998.69,0.0,0.0,998.69,0.0,16.83,16.83,1015.52,12,34.6115755,-111.83498540000001
89,WAR IN THE PACIFIC NHP,139,"384,610",0.12%,GUAM,PW,957.52,0.0,0.73,958.25,871.96,200.44,1072.4,2030.65,58,13.4737049,144.7090803
90,CHANNEL ISLANDS NP,140,"383,687",0.12%,CA,PW,69425.66,0.0,9592.96,79018.62,124554.15,45988.23,170542.38,249561.0,88,33.996073700000004,-119.7691632
91,COLORADO NM,141,"375,035",0.11%,CO,IM,20536.39,0.0,0.0,20536.39,0.0,0.0,0.0,20536.39,93,39.0575219,-108.6938999
92,SALEM MARITIME NHS,142,"373,630",0.11%,MA,NE,8.93,0.0,0.0,8.93,0.0,0.09,0.09,9.02,78,42.521316299999995,-70.8866429
93,ANTIETAM NB,144,"366,508",0.11%,MD,NC,1937.09,805.68,0.0,2742.77,20.98,466.63,487.61,3230.38,231,39.46874520000001,-77.7387923
94,VANDERBILT MANSION NHS,148,"360,436",0.11%,NY,NE,211.65,0.0,0.0,211.65,0.0,0.0,0.0,211.65,9,41.7963461,-73.9423869
95,HARPERS FERRY NHP,150,"342,535",0.10%,MD-VA-WV,NC,3155.41,53.67,338.97,3548.05,59.1,49.07,108.17,3656.22,107,39.3228225,-77.72920719999998
96,FEDERAL HALL NMEM,151,"325,497",0.10%,NY,NE,0.45,0.0,0.0,0.45,0.0,0.0,0.0,0.45,216,40.7073993,-74.0102088
97,DINOSAUR NM,153,"315,859",0.10%,CO-UT,IM,203097.93,2667.58,0.0,205765.51,50.96,4465.45,4516.41,210281.92,59,40.4927109,-108.9416357
98,PATERSON GREAT FALLS NHP,154,"308,199",0.09%,NJ,NE,0.39,0.0,0.0,0.39,50.47,0.46,50.93,51.32,96,40.9172641,-74.18118919999998
99,VIRGIN ISLANDS NP,156,"304,408",0.09%,VI,SE,13101.98,3.0,0.0,13104.98,133.48,1701.54,1835.02,14940.0,113,18.3424047,-64.74857589999999
100,KENAI FJORDS NP,157,"303,598",0.09%,AK,A,603129.86,0.0,0.0,603129.86,19302.0,47218.19,66520.19,669650.05,129,59.69222219999999,-150.6155555
101,MORRISTOWN NHP,166,"268,295",0.08%,NJ,NE,1704.74,0.95,0.0,1705.69,0.0,5.03,5.03,1710.72,111,40.7648452,-74.53168070000001
102,SAN JUAN ISLAND NHP,167,"267,209",0.08%,WA,PW,2114.52,0.0,0.0,2114.52,26.54,4.5,31.04,2145.56,169,48.4550358,-122.97730659999999
103,ORGAN PIPE CACTUS NM,168,"260,534",0.08%,AZ,IM,329114.5,24.42,226.37,329365.29,1280.0,43.57,1323.57,330688.86,223,32.087759600000005,-112.90588020000001
104,ADAMS NHP,169,"255,562",0.08%,MA,NE,9.17,0.0,0.0,9.17,4.0,10.65,14.65,23.82,230,42.25235319999999,-71.00398220000001
105,RIVER RAISIN NBP,172,"238,813",0.07%,MI,MW,42.18,0.0,0.0,42.18,0.0,0.0,0.0,42.18,35,41.9112005,-83.37672649999998
106,NEZ PERCE NHP,173,"238,424",0.07%,MT-ID-OR-WA,PW,1972.61,1885.33,5.12,3863.06,261.2,440.67,701.87,4564.93,139,46.4475305,-116.8227368
107,VOYAGEURS NP,174,"237,250",0.07%,MN,MW,133108.69,0.0,139.03,133247.72,83903.18,1049.25,84952.43,218200.15,125,48.4840955,-92.8270873
108,WUPATKI NM,175,"236,454",0.07%,AZ,IM,35401.73,20.4,0.0,35422.13,0.0,0.0,0.0,35422.13,152,35.5584745,-111.375095
109,DE SOTO NMEM,177,"233,354",0.07%,FL,SE,24.78,0.0,0.0,24.78,0.0,5.22,5.22,30.0,37,27.5222794,-82.6445936
110,NATCHEZ NHP,178,"233,339",0.07%,MS,SE,85.98,0.0,0.0,85.98,5.02,17.3,22.32,108.3,194,31.559982,-91.405937
111,PINNACLES NP,179,"233,334",0.07%,CA,PW,26674.6,0.31,0.0,26674.91,0.0,10.82,10.82,26685.73,226,36.4905655,-121.18249250000001
112,LINCOLN HOME NHS,180,"232,265",0.07%,IL,MW,12.03,0.0,0.0,12.03,0.0,0.21,0.21,12.24,92,39.7973533,-89.64492539999998
113,BIGHORN CANYON NRA,181,"231,836",0.07%,MT-WY,IM,47986.04,889.89,19614.94,68490.87,1392.29,50413.06,51805.35,120296.22,61,45.3109005,-107.9359118
114,STONES RIVER NB,182,"230,562",0.07%,TN,SE,649.49,0.0,0.0,649.49,13.07,46.93,60.0,709.49,205,35.8731131,-86.43468999999997
115,RICHMOND NBP,184,"224,014",0.07%,VA,NE,3648.1,22.43,1.42,3671.95,3.7,4495.2,4498.9,8170.85,219,37.535554,-77.44578100000001
116,COWPENS NB,187,"212,692",0.06%,SC,SE,790.9,0.0,0.0,790.9,46.63,4.03,50.66,841.56,74,35.1367361,-81.8181625
117,BANDELIER NM,188,"209,141",0.06%,NM,IM,33654.44,0.0,0.0,33654.44,0.0,22.23,22.23,33676.67,40,35.7646658,-106.3228338
118,PETERSBURG NB,190,"208,473",0.06%,VA,NE,2656.14,0.12,0.0,2656.26,0.0,6712.08,6712.08,9368.34,118,37.2438545,-77.3568983
119,APOSTLE ISLANDS NL,192,"203,421",0.06%,WI,MW,42160.7,0.0,0.0,42160.7,27216.73,0.0,27216.73,69377.43,213,46.9302046,-90.6333321
120,SITKA NHP,195,"194,880",0.06%,AK,A,58.22,0.0,0.0,58.22,54.63,3.44,58.07,116.29,218,57.0489056,-135.3159583
121,JOHNSTOWN FLOOD NMEM,198,"171,376",0.05%,PA,NE,167.77,1.24,0.0,169.01,5.55,3.2,8.75,177.76,220,40.328007899999996,-78.92043840000001
122,GREAT BASIN NP,202,"168,028",0.05%,NV,PW,77180.0,0.0,0.0,77180.0,0.0,0.0,0.0,77180.0,44,38.98333299999999,-114.3
123,WALNUT CANYON NM,204,"165,134",0.05%,AZ,IM,3251.42,0.0,0.0,3251.42,0.0,277.84,277.84,3529.26,110,35.1717266,-111.50927539999999
124,EL MALPAIS NM,205,"161,526",0.05%,NM,IM,109946.76,0.0,0.0,109946.76,435.61,3964.74,4400.35,114347.11,208,34.9002575,-107.9942365
125,CONGAREE NP,206,"159,595",0.05%,SC,SE,26284.06,0.0,0.0,26284.06,0.0,255.16,255.16,26539.22,119,33.794800099999996,-80.78209620000001
126,PISCATAWAY PARK,208,"154,011",0.05%,MD,NC,1919.85,2670.72,0.0,4590.57,0.0,35.8,35.8,4626.37,16,38.690893,-77.070737
127,SCOTTS BLUFF NM,209,"152,560",0.05%,NE,MW,2953.94,0.27,0.0,2954.21,5.95,44.57,50.52,3004.73,121,41.8391527,-103.7115457
128,HERBERT HOOVER NHS,212,"144,619",0.04%,IA,MW,181.11,0.0,0.0,181.11,4.59,1.1,5.69,186.8,134,41.6689744,-91.3477571
129,JEWEL CAVE NM,213,"144,537",0.04%,SD,MW,1273.51,0.0,0.0,1273.51,0.0,0.0,0.0,1273.51,34,43.7303594,-103.8290512
130,MINUTEMAN MISSILE NHS,214,"143,715",0.04%,SD,MW,39.22,0.93,0.0,40.15,0.0,3.65,3.65,43.8,43,43.844547,-101.9011854
131,LINCOLN BOYHOOD NMEM,215,"143,651",0.04%,IN,MW,185.68,0.0,0.0,185.68,6.38,7.9,14.28,199.96,195,38.11391629999999,-86.99694140000001
132,GREENBELT PARK,217,"141,856",0.04%,MD,NC,1105.79,0.0,0.0,1105.79,58.3,11.33,69.63,1175.42,182,38.983031,-76.90114270000001
133,PETROGLYPH NM,218,"141,803",0.04%,NM,IM,2936.37,0.0,0.0,2936.37,4160.95,111.98,4272.93,7209.3,215,35.13678170000001,-106.7405057
134,LAVA BEDS NM,219,"135,286",0.04%,CA,PW,46692.42,0.0,0.0,46692.42,0.0,0.0,0.0,46692.42,196,41.758837,-121.52666409999998
135,ANDERSONVILLE NHS,220,"132,149",0.04%,GA,SE,499.88,1.0,0.0,500.88,7.89,6.84,14.73,515.61,124,32.2002948,-84.1303207
136,CORONADO NMEM,221,"131,614",0.04%,AZ,IM,4828.22,0.0,0.0,4828.22,0.0,2.0,2.0,4830.22,222,31.3458652,-110.25377549999999
137,PEA RIDGE NMP,225,"121,163",0.04%,AR,MW,4278.75,0.0,0.0,4278.75,17.83,3.77,21.6,4300.35,190,36.443765500000005,-94.025807
138,GAULEY RIVER NRA,228,"118,733",0.04%,WV,NE,4817.11,61.67,43.36,4922.14,989.83,5654.49,6644.32,11566.46,24,38.208965500000005,-81.01473
139,MANZANAR NHS,230,"114,461",0.03%,CA,PW,813.81,0.0,0.0,813.81,0.0,0.0,0.0,813.81,30,36.72722879999999,-118.1527894
140,MONOCACY NB,232,"113,820",0.03%,MD,NC,1354.87,195.37,0.0,1550.24,51.82,44.81,96.63,1646.87,179,39.3725838,-77.39898199999998
141,NINETY SIX NHS,233,"113,103",0.03%,SC,SE,1021.94,0.0,0.0,1021.94,0.0,0.0,0.0,1021.94,162,34.146721899999996,-82.0235684
142,DEVILS POSTPILE NM,234,"109,571",0.03%,CA,PW,800.19,0.0,0.0,800.19,0.0,0.0,0.0,800.19,66,37.625106200000005,-119.0849506
143,TUZIGOOT NM,235,"109,388",0.03%,AZ,IM,366.42,15.11,0.0,381.53,0.0,430.36,430.36,811.89,109,34.768777899999996,-112.0268895
144,RAINBOW BRIDGE NM,237,"108,418",0.03%,UT,IM,160.0,0.0,0.0,160.0,0.0,0.0,0.0,160.0,65,37.0774203,-110.964382
145,NATURAL BRIDGES NM,238,"107,443",0.03%,UT,IM,7620.49,16.0,0.0,7636.49,0.0,0.0,0.0,7636.49,17,37.604056,-110.0052043
146,STONEWALL NM,240,"106,791",0.03%,NY,NE,0.12,0.0,0.0,0.12,7.53,0.05,7.58,7.7,137,40.7335757,-74.00252789999998
147,STEAMTOWN NHS,241,"103,956",0.03%,PA,NE,51.29,0.0,0.0,51.29,10.55,0.64,11.19,62.48,4,41.40790579999999,-75.6720114
148,WACO MAMMOTH NM,242,"101,792",0.03%,TX,IM,4.93,2.18,0.0,7.11,100.12,0.0,100.12,107.23,171,31.606733600000002,-97.1758392
149,TIMPANOGOS CAVE NM,243,"100,740",0.03%,UT,IM,250.0,0.0,0.0,250.0,0.0,0.0,0.0,250.0,191,40.4405549,-111.7094462
150,SARATOGA NHP,245,"97,781",0.03%,NY,NE,3080.6,2.04,0.0,3082.64,59.18,437.32,496.5,3579.14,180,43.01230820000001,-73.6488883
151,GENERAL GRANT NMEM,246,"97,005",0.03%,NY,NE,0.76,0.0,0.0,0.76,0.0,0.0,0.0,0.76,204,40.8134045,-73.9630671
152,CHRISTIANSTED NHS,247,"96,779",0.03%,VI,SE,26.24,0.0,0.0,26.24,0.91,0.0,0.91,27.15,98,17.7471645,-64.7021636
153,GRAND PORTAGE NM,248,"96,051",0.03%,MN,MW,709.97,0.0,0.0,709.97,0.0,0.0,0.0,709.97,31,47.9607126,-89.68658609999999
154,MANHATTAN PROJECT NHP,249,"89,599",0.03%,NM-TN-WA,IM,0.0,0.0,113.61,113.61,0.0,0.0,0.0,113.61,53,35.8825835,-106.30184750000001
155,MOORES CREEK NB,250,"86,747",0.03%,NC,SE,85.35,2.4,0.0,87.75,0.0,0.0,0.0,87.75,55,34.457789700000006,-78.109585
156,CHAMIZAL NMEM,251,"86,400",0.03%,TX,IM,54.9,0.0,0.0,54.9,0.0,0.0,0.0,54.9,132,31.767143800000003,-106.4542166
157,HAMILTON GRANGE NMEM,252,"85,603",0.03%,NY,NE,0.11,0.93,0.0,1.04,0.0,0.71,0.71,1.75,228,40.8213537,-73.9473103
158,ROGER WILLIAMS NMEM,256,"80,970",0.02%,RI,NE,4.56,0.0,0.0,4.56,0.0,0.0,0.0,4.56,224,41.831331799999994,-71.41074029999999
159,FREDERICK DOUGLASS NHS,259,"76,569",0.02%,DC,NC,8.57,0.0,0.0,8.57,0.0,0.0,0.0,8.57,123,38.8632895,-76.9851973
160,KALAUPAPA NHP,260,"76,512",0.02%,HI,PW,22.88,0.0,0.0,22.88,10684.0,72.0,10756.0,10778.88,26,21.1924062,-156.9665093
161,PIPESTONE NM,261,"76,486",0.02%,MN,MW,281.78,0.0,0.0,281.78,0.0,0.0,0.0,281.78,197,44.01364909999999,-96.3247472
162,CASA GRANDE RUINS NM,262,"75,583",0.02%,AZ,IM,472.5,0.0,0.0,472.5,0.0,0.0,0.0,472.5,181,32.995458899999996,-111.53552820000002
163,HORSESHOE BEND NMP,263,"74,255",0.02%,AL,SE,2040.0,0.0,0.0,2040.0,0.0,0.0,0.0,2040.0,105,32.97832229999999,-85.73100759999998
164,CARL SANDBURG HOME NHS,264,"72,777",0.02%,NC,SE,263.52,0.0,0.0,263.52,0.0,0.13,0.13,263.65,142,35.2714108,-82.44724709999998
165,OREGON CAVES NM & PRES,265,"72,212",0.02%,OR,PW,4554.03,0.0,0.0,4554.03,0.0,0.0,0.0,4554.03,150,42.095462,-123.40428840000001
166,FLORISSANT FOSSIL BEDS NM,266,"71,763",0.02%,CO,IM,5992.32,0.0,0.0,5992.32,5.77,0.0,5.77,5998.09,114,38.9136173,-105.28540759999998
167,NAVAJO NM,268,"68,785",0.02%,AZ,IM,360.0,0.0,0.0,360.0,0.0,0.0,0.0,360.0,42,35.900012100000005,-109.0339832
168,ELEANOR ROOSEVELT NHS,271,"67,621",0.02%,NY,NE,180.5,0.0,0.0,180.5,0.0,0.0,0.0,180.5,99,41.763138899999994,-73.89909759999998
169,EFFIGY MOUNDS NM,272,"67,006",0.02%,IA,MW,2526.39,0.0,0.0,2526.39,0.0,0.0,0.0,2526.39,116,43.089214,-91.20064190000001
170,CHIRICAHUA NM,273,"63,132",0.02%,AZ,IM,12022.38,0.0,0.0,12022.38,0.0,2.35,2.35,12024.73,198,32.0135714,-109.3422953
171,HOPEWELL CULTURE NHP,274,"62,413",0.02%,OH,MW,1138.3,8.05,0.0,1146.35,0.11,623.73,623.84,1770.19,81,39.376106400000005,-83.00650970000001
172,WOMEN'S RIGHTS NHP,275,"61,806",0.02%,NY,NE,7.03,0.09,0.0,7.12,0.1,0.22,0.32,7.44,32,42.910773,-76.800178
173,JIMMY CARTER NHS,279,"60,735",0.02%,GA,SE,36.81,8.81,1.92,47.54,0.0,24.67,24.67,72.21,60,32.0365107,-84.3925979
174,CAPULIN VOLCANO NM,281,"59,615",0.02%,NM,IM,792.84,0.0,0.0,792.84,0.0,0.0,0.0,792.84,146,36.7810744,-103.9695127
175,THOMAS EDISON NHP,282,"59,323",0.02%,NJ,NE,21.25,0.0,0.0,21.25,0.0,0.0,0.0,21.25,189,40.783997799999995,-74.2340291
176,EL MORRO NM,283,"59,013",0.02%,NM,IM,1039.92,0.0,0.0,1039.92,0.0,238.8,238.8,1278.72,67,35.03963579999999,-108.3450813
177,CHACO CULTURE NHP,284,"55,334",0.02%,NM,IM,32840.14,0.0,0.0,32840.14,0.0,1120.05,1120.05,33960.19,172,36.05299979999999,-107.955924
178,SAGAMORE HILL NHS,285,"55,186",0.02%,NY,NE,83.02,0.0,0.0,83.02,0.0,0.0,0.0,83.02,75,40.88552929999999,-73.5010296
179,DRY TORTUGAS NP,286,"54,281",0.02%,FL,SE,61481.22,0.0,0.0,61481.22,3220.0,0.0,3220.0,64701.22,76,24.628477,-82.87318739999998
180,ANDREW JOHNSON NHS,287,"53,998",0.02%,TN,SE,16.68,0.0,0.0,16.68,0.0,0.0,0.0,16.68,86,36.1627802,-82.8294485
181,CHARLES PINCKNEY NHS,288,"53,744",0.02%,SC,SE,28.45,0.0,0.0,28.45,0.0,0.0,0.0,28.45,184,32.8455749,-79.82395989999998
182,AZTEC RUINS NM,290,"52,756",0.02%,NM,IM,266.78,0.0,0.0,266.78,6.78,44.84,51.62,318.4,127,36.837208600000004,-108.00009299999999
183,CUMBERLAND ISLAND NS,291,"51,937",0.02%,GA,SE,18866.37,1.63,656.92,19524.92,13820.15,3001.76,16821.91,36346.83,38,30.8659411,-81.45052940000001
184,EISENHOWER NHS,293,"50,597",0.02%,PA,NE,687.37,3.09,0.0,690.46,0.0,0.0,0.0,690.46,192,39.79391079999999,-77.26331590000001
185,HOPEWELL FURNACE NHS,294,"49,306",0.01%,PA,NE,848.06,0.0,0.0,848.06,0.0,0.0,0.0,848.06,156,40.209726700000004,-75.7691263
186,WHITMAN MISSION NHS,295,"47,757",0.01%,WA,PW,138.53,0.0,0.0,138.53,0.0,0.0,0.0,138.53,79,46.04132509999999,-118.46391770000001
187,JOHN MUIR NHS,296,"46,876",0.01%,CA,PW,338.3,0.0,0.0,338.3,3.9,1.94,5.84,344.14,227,37.99216759999999,-122.13097040000001
188,TUMACACORI NHP,299,"46,308",0.01%,AZ,IM,357.74,0.0,0.0,357.74,0.64,1.94,2.58,360.32,149,31.56781969999999,-111.0510277
189,HARRY S TRUMAN NHS,301,"45,435",0.01%,MO,MW,12.59,0.0,0.0,12.59,0.0,0.0,0.0,12.59,225,39.093754,-94.4233898
190,AFRICAN BURIAL GROUND NM,302,"43,182",0.01%,NY,NE,0.35,0.0,0.0,0.35,0.0,0.0,0.0,0.35,202,40.7145049,-74.0043973
191,TONTO NM,303,"40,898",0.01%,AZ,IM,1120.0,0.0,0.0,1120.0,0.0,0.0,0.0,1120.0,56,33.6452781,-111.1126846
192,NEW ORLEANS JAZZ NHP,304,"40,814",0.01%,LA,SE,0.0,0.0,0.0,0.0,5.13,0.0,5.13,5.13,104,29.958455800000003,-90.06078959999998
193,PECOS NHP,305,"40,650",0.01%,NM,IM,6405.68,0.0,0.0,6405.68,51.51,236.3,287.81,6693.49,155,35.549232399999994,-105.68844440000001
194,HOVENWEEP NM,306,"39,970",0.01%,CO-UT,IM,784.93,0.0,0.0,784.93,0.0,0.0,0.0,784.93,122,37.383762299999994,-109.0726022
195,FRIENDSHIP HILL NHS,307,"39,377",0.01%,PA,NE,661.44,0.0,0.0,661.44,0.0,13.12,13.12,674.56,199,39.777614899999996,-79.9314768
196,TUSKEGEE AIRMEN NHS,308,"39,322",0.01%,AL,SE,44.71,0.0,0.0,44.71,0.4,44.57,44.97,89.68,108,32.4572441,-85.680363
197,LAKE CHELAN NRA,309,"38,464",0.01%,WA,PW,59337.22,11.83,0.0,59349.05,2210.44,386.78,2597.22,61946.27,80,48.352344,-120.68557709999999
198,WEIR FARM NHS,310,"38,096",0.01%,CT,NE,68.05,0.0,0.0,68.05,0.0,6.15,6.15,74.2,147,41.2565181,-73.45640230000002
199,BIG HOLE NB,314,"36,717",0.01%,MT,PW,655.61,0.0,0.0,655.61,0.0,320.0,320.0,975.61,151,45.6413441,-113.6434203
200,ARKANSAS POST NMEM,315,"36,079",0.01%,AR,MW,649.91,0.0,14.0,663.91,0.0,93.6,93.6,757.51,49,34.0210974,-91.34788509999998
201,BUCK ISLAND REEF NM,317,"33,082",0.01%,VI,SE,880.0,0.0,18135.47,19015.47,0.0,0.0,0.0,19015.47,163,17.787094600000003,-64.62061059999999
202,HAMPTON NHS,318,"32,327",0.01%,MD,NE,62.04,0.0,0.0,62.04,0.0,0.0,0.0,62.04,183,39.416328899999996,-76.58763189999998
203,AGATE FOSSIL BEDS NM,319,"32,038",0.01%,NE,MW,2270.33,459.75,0.0,2730.08,24.43,303.36,327.79,3057.87,10,42.425210299999996,-103.7342402
204,BLUESTONE NSR,320,"32,028",0.01%,WV,NE,3032.0,0.0,0.0,3032.0,1236.0,41.51,1277.51,4309.51,23,37.3981898,-81.167565
205,NORTH CASCADES NP,324,"30,326",0.01%,WA,PW,504654.18,0.0,0.0,504654.18,0.0,126.76,126.76,504780.94,47,48.7718174,-121.2984648
206,CANE RIVER CREOLE NHP,325,"30,117",0.01%,LA,SE,62.39,0.0,0.0,62.39,4.64,138.47,143.11,205.5,29,31.665269300000002,-93.00336379999999
207,PIPE SPRING NM,327,"29,065",0.01%,AZ,IM,40.0,0.0,0.0,40.0,0.0,0.0,0.0,40.0,158,36.862891299999994,-112.7397318
208,ISLE ROYALE NP,330,"28,196",0.01%,MI,MW,539281.91,0.0,0.0,539281.91,32508.39,0.0,32508.39,571790.3,148,47.9958654,-88.9092899
209,BENT'S OLD FORT NHS,331,"26,397",0.01%,CO,IM,735.6,0.0,0.0,735.6,7.4,55.8,63.2,798.8,200,38.0404268,-103.4295033
210,SPRINGFIELD ARMORY NHS,334,"25,109",0.01%,MA,NE,20.32,0.28,0.0,20.6,34.33,0.0,34.33,54.93,39,42.1072695,-72.58157380000002
211,RUSSELL CAVE NM,336,"24,377",0.01%,AL,SE,310.45,0.0,0.0,310.45,0.0,0.0,0.0,310.45,45,34.9764537,-85.81425709999998
212,GRANT-KOHRS RANCH NHS,337,"24,072",0.01%,MT,IM,1325.83,165.63,0.0,1491.46,69.47,57.5,126.97,1618.43,33,46.406069,-112.736682
213,MARTIN VAN BUREN NHS,339,"22,023",0.01%,NY,NE,44.53,7.64,0.0,52.17,0.24,232.52,232.76,284.93,201,42.36978250000001,-73.70417420000001
214,FOSSIL BUTTE NM,340,"21,978",0.01%,WY,IM,8198.0,0.0,0.0,8198.0,0.0,0.0,0.0,8198.0,165,41.85818039999999,-110.76588670000001
215,TUSKEGEE INSTITUTE NHS,342,"20,407",0.01%,AL,SE,7.9,1.02,0.0,8.92,0.0,49.0,49.0,57.92,136,32.428134899999996,-85.7052446
216,KEWEENAW NHP,344,"16,479",0.00%,MI,MW,135.78,0.0,0.0,135.78,0.0,1734.22,1734.22,1870.0,19,47.242309399999996,-88.44810600000001
217,KOBUK VALLEY NP,345,"15,500",0.00%,AK,A,1714413.42,5.0,0.0,1714418.42,966.0,35331.74,36297.74,1750716.16,0,67.33561970000001,-159.1243161
218,CAPE KRUSENSTERN NM,347,"15,000",0.00%,AK,A,617195.15,10033.51,0.0,627228.66,353.0,21514.49,21867.49,649096.15,20,67.12805560000001,-163.74527780000003
219,EDGAR ALLAN POE NHS,348,"14,878",0.00%,PA,NE,0.52,0.0,0.0,0.52,0.0,0.0,0.0,0.52,91,39.962057,-75.14998100000001
220,FIRST LADIES NHS,350,"13,085",0.00%,OH,MW,0.46,0.0,0.0,0.46,0.0,0.0,0.0,0.46,203,40.797618,-81.37534099999998
221,SAUGUS IRON WORKS NHS,352,"12,256",0.00%,MA,NE,8.51,0.0,0.0,8.51,0.0,0.0,0.0,8.51,84,42.4679503,-71.00812719999998
222,WASHITA BATTLEFIELD NHS,354,"11,831",0.00%,OK,IM,312.2,0.0,0.0,312.2,3.0,0.0,3.0,315.2,141,35.6199266,-99.70515470000001
223,MINIDOKA NHS,357,"11,622",0.00%,ID,PW,299.79,88.51,0.0,388.3,8.0,0.0,8.0,396.3,100,42.6779139,-114.25120109999999
224,FREDERICK LAW OLMSTED NHS,358,"11,388",0.00%,MA,NE,7.06,0.15,0.0,7.21,0.0,0.0,0.0,7.21,160,42.3254659,-71.1320319
225,THOMAS STONE NHS,363,"10,250",0.00%,MD,NE,328.25,0.0,0.0,328.25,0.0,0.0,0.0,328.25,130,38.530233,-77.0360161
226,SAND CREEK MASSACRE NHS,367,"6,535",0.00%,CO,IM,3025.43,0.0,0.0,3025.43,0.0,9557.91,9557.91,12583.34,210,38.5447972,-102.50380009999999
227,EUGENE O'NEILL NHS,368,"3,931",0.00%,CA,PW,13.19,0.0,0.0,13.19,0.0,0.0,0.0,13.19,131,37.825922600000006,-122.02727320000001
228,NICODEMUS NHS,369,"2,916",0.00%,KS,MW,0.22,1.42,0.0,1.64,12.93,2.95,15.88,17.52,170,39.39323419999999,-99.6147017
